{
    "{\n\"lat\": \"40.7128\",\n\"lon\": \"-74.0060\"\n}": {
        "error": "",
        "response": "{\"city_name\":\"New York City\",\"country_code\":\"US\",\"data\":[{\"aqi\":52,\"co\":110,\"mold_level\":0,\"no2\":5,\"o3\":106,\"pm10\":18,\"pm25\":13,\"pollen_level_grass\":3,\"pollen_level_tree\":1,\"pollen_level_weed\":2,\"predominant_pollen_type\":\"Grasses\",\"so2\":11}],\"lat\":40.7128,\"lon\":-74.006,\"state_code\":\"NY\",\"timezone\":\"America/New_York\"}"
    },
    "{\n  \"lat\": \"40.7128\",\n  \"lon\": \"-74.0060\"\n}": {
        "error": "",
        "response": "{\"city_name\":\"New York City\",\"country_code\":\"US\",\"data\":[{\"aqi\":150,\"co\":140,\"mold_level\":0,\"no2\":3,\"o3\":132,\"pm10\":77,\"pm25\":54,\"pollen_level_grass\":3,\"pollen_level_tree\":1,\"pollen_level_weed\":2,\"predominant_pollen_type\":\"Grasses\",\"so2\":4}],\"lat\":40.7128,\"lon\":-74.006,\"state_code\":\"NY\",\"timezone\":\"America/New_York\"}"
    },
    "{\n\"lon\": \"-74.0060\",\n\"lat\": \"40.7128\"\n}": {
        "error": "",
        "response": "{\"city_name\":\"New York City\",\"country_code\":\"US\",\"data\":[{\"aqi\":150,\"co\":140,\"mold_level\":0,\"no2\":3,\"o3\":132,\"pm10\":77,\"pm25\":54,\"pollen_level_grass\":3,\"pollen_level_tree\":1,\"pollen_level_weed\":2,\"predominant_pollen_type\":\"Grasses\",\"so2\":4}],\"lat\":40.7128,\"lon\":-74.006,\"state_code\":\"NY\",\"timezone\":\"America/New_York\"}"
    },
    "{'lat': '48.8566', 'lon': '2.3522'}": {
        "error": "",
        "response": {
            "city_name": "Paris",
            "country_code": "FR",
            "data": [
                {
                    "aqi": 72,
                    "co": 93,
                    "mold_level": 1,
                    "no2": 6.34375,
                    "o3": 50.444443,
                    "pm10": 32,
                    "pm25": 22,
                    "pollen_level_grass": 1,
                    "pollen_level_tree": 1,
                    "pollen_level_weed": 1,
                    "predominant_pollen_type": "Molds",
                    "so2": 4
                }
            ],
            "lat": 48.8566,
            "lon": 2.3522,
            "state_code": "11",
            "timezone": "Europe/Paris"
        }
    },
    "{'lat': '51.5074', 'lon': '-0.1278'}": {
        "error": "",
        "response": {
            "city_name": "London",
            "country_code": "GB",
            "data": [
                {
                    "aqi": 74,
                    "co": 84,
                    "mold_level": 1,
                    "no2": 9.657535,
                    "o3": 36.53846,
                    "pm10": 36,
                    "pm25": 23,
                    "pollen_level_grass": 1,
                    "pollen_level_tree": 1,
                    "pollen_level_weed": 1,
                    "predominant_pollen_type": "Molds",
                    "so2": 2
                }
            ],
            "lat": 51.5074,
            "lon": -0.1278,
            "state_code": "ENG",
            "timezone": "Europe/London"
        }
    },
    "{'lat': '35.779', 'lon': '-78.638'}": {
        "error": "",
        "response": {
            "city_name": "Raleigh",
            "country_code": "US",
            "data": [
                {
                    "aqi": 54,
                    "co": 187,
                    "mold_level": 0,
                    "no2": 4,
                    "o3": 73,
                    "pm10": 23,
                    "pm25": 14,
                    "pollen_level_grass": 1,
                    "pollen_level_tree": 1,
                    "pollen_level_weed": 1,
                    "predominant_pollen_type": "Trees",
                    "so2": 5
                }
            ],
            "lat": 35.779,
            "lon": -78.638,
            "state_code": "NC",
            "timezone": "America/New_York"
        }
    },
    "{'lat': '52.5167', 'lon': '13.4'}": {
        "error": "",
        "response": {
            "city_name": "Mitte",
            "country_code": "DE",
            "data": [
                {
                    "aqi": 33,
                    "co": 203.33333,
                    "mold_level": 1,
                    "no2": 3.3043478,
                    "o3": 53.166668,
                    "pm10": 14,
                    "pm25": 8,
                    "pollen_level_grass": 1,
                    "pollen_level_tree": 1,
                    "pollen_level_weed": 1,
                    "predominant_pollen_type": "Molds",
                    "so2": 4
                }
            ],
            "lat": 52.5167,
            "lon": 13.4,
            "state_code": "16",
            "timezone": "Europe/Berlin"
        }
    },
    "{'lat': '48.864716', 'lon': '2.349014'}": {
        "error": "",
        "response": {
            "city_name": "Paris",
            "country_code": "FR",
            "data": [
                {
                    "aqi": 72,
                    "co": 100,
                    "mold_level": 1,
                    "no2": 6.34375,
                    "o3": 50.444443,
                    "pm10": 32,
                    "pm25": 22,
                    "pollen_level_grass": 1,
                    "pollen_level_tree": 1,
                    "pollen_level_weed": 1,
                    "predominant_pollen_type": "Molds",
                    "so2": 6
                }
            ],
            "lat": 48.8647,
            "lon": 2.349,
            "state_code": "11",
            "timezone": "Europe/Paris"
        }
    },
    "{'lat': '41.9028', 'lon': '12.4964'}": {
        "error": "",
        "response": {
            "city_name": "Rome",
            "country_code": "IT",
            "data": [
                {
                    "aqi": 37,
                    "co": 550,
                    "mold_level": 1,
                    "no2": 10.5,
                    "o3": 52,
                    "pm10": 15,
                    "pm25": 9,
                    "pollen_level_grass": 1,
                    "pollen_level_tree": 1,
                    "pollen_level_weed": 1,
                    "predominant_pollen_type": "Molds",
                    "so2": 2.25
                }
            ],
            "lat": 41.9028,
            "lon": 12.4964,
            "state_code": "07",
            "timezone": "Europe/Rome"
        }
    },
    "{'lat': '52.5200', 'lon': '13.4050'}": {
        "error": "",
        "response": {
            "city_name": "Mitte",
            "country_code": "DE",
            "data": [
                {
                    "aqi": 29,
                    "co": 223.33333,
                    "mold_level": 1,
                    "no2": 3.8181818,
                    "o3": 60.090908,
                    "pm10": 15,
                    "pm25": 7,
                    "pollen_level_grass": 1,
                    "pollen_level_tree": 1,
                    "pollen_level_weed": 1,
                    "predominant_pollen_type": "Molds",
                    "so2": 4
                }
            ],
            "lat": 52.52,
            "lon": 13.405,
            "state_code": "16",
            "timezone": "Europe/Berlin"
        }
    },
    "{'lat': '34.0522', 'lon': '-118.2437'}": {
        "error": "",
        "response": {
            "city_name": "Los Angeles",
            "country_code": "US",
            "data": [
                {
                    "aqi": 78,
                    "co": 234,
                    "mold_level": 1,
                    "no2": 52,
                    "o3": 72,
                    "pm10": 34,
                    "pm25": 25,
                    "pollen_level_grass": 0,
                    "pollen_level_tree": 2,
                    "pollen_level_weed": 1,
                    "predominant_pollen_type": "Trees",
                    "so2": 51
                }
            ],
            "lat": 34.0522,
            "lon": -118.2437,
            "state_code": "CA",
            "timezone": "America/Los_Angeles"
        }
    },
    "{'lat': '37.7749', 'lon': '-122.4194'}": {
        "error": "",
        "response": {
            "city_name": "San Francisco",
            "country_code": "US",
            "data": [
                {
                    "aqi": 50,
                    "co": 108,
                    "mold_level": 0,
                    "no2": 16,
                    "o3": 83,
                    "pm10": 13,
                    "pm25": 12,
                    "pollen_level_grass": 3,
                    "pollen_level_tree": 3,
                    "pollen_level_weed": 2,
                    "predominant_pollen_type": "Trees",
                    "so2": 13
                }
            ],
            "lat": 37.7749,
            "lon": -122.4194,
            "state_code": "CA",
            "timezone": "America/Los_Angeles"
        }
    },
    "{'lon': '2.3522', 'lat': '48.8566'}": {
        "error": "",
        "response": {
            "city_name": "Paris",
            "country_code": "FR",
            "data": [
                {
                    "aqi": 37,
                    "co": 30,
                    "mold_level": 1,
                    "no2": 35.4375,
                    "o3": 37.235294,
                    "pm10": 33,
                    "pm25": 9,
                    "pollen_level_grass": 1,
                    "pollen_level_tree": 1,
                    "pollen_level_weed": 1,
                    "predominant_pollen_type": "Molds",
                    "so2": 5
                }
            ],
            "lat": 48.8566,
            "lon": 2.3522,
            "state_code": "11",
            "timezone": "Europe/Paris"
        }
    },
    "{'lon': '-74.0059', 'lat': '40.7128'}": {
        "error": "",
        "response": {
            "city_name": "New York City",
            "country_code": "US",
            "data": [
                {
                    "aqi": 101,
                    "co": 165,
                    "mold_level": 1,
                    "no2": 16,
                    "o3": 163,
                    "pm10": 10,
                    "pm25": 9,
                    "pollen_level_grass": 1,
                    "pollen_level_tree": 1,
                    "pollen_level_weed": 1,
                    "predominant_pollen_type": "Molds",
                    "so2": 10
                }
            ],
            "lat": 40.7128,
            "lon": -74.0059,
            "state_code": "NY",
            "timezone": "America/New_York"
        }
    },
    "{'lat': '35.6895', 'lon': '139.6917'}": {
        "error": "",
        "response": {
            "city_name": "Tokyo",
            "country_code": "JP",
            "data": [
                {
                    "aqi": 93,
                    "co": 236,
                    "mold_level": 0,
                    "no2": 11,
                    "o3": 62,
                    "pm10": 49,
                    "pm25": 32,
                    "pollen_level_grass": 0,
                    "pollen_level_tree": 0,
                    "pollen_level_weed": 0,
                    "predominant_pollen_type": "Molds",
                    "so2": 16
                }
            ],
            "lat": 35.6895,
            "lon": 139.6917,
            "state_code": "40",
            "timezone": "Asia/Tokyo"
        }
    },
    "{'lon': '-73.935242', 'lat': '40.730610'}": {
        "error": "",
        "response": {
            "city_name": "Blissville",
            "country_code": "US",
            "data": [
                {
                    "aqi": 60,
                    "co": 139,
                    "mold_level": 1,
                    "no2": 3,
                    "o3": 128,
                    "pm10": 10,
                    "pm25": 9,
                    "pollen_level_grass": 2,
                    "pollen_level_tree": 1,
                    "pollen_level_weed": 1,
                    "predominant_pollen_type": "Grasses",
                    "so2": 3
                }
            ],
            "lat": 40.7306,
            "lon": -73.9352,
            "state_code": "NY",
            "timezone": "America/New_York"
        }
    },
    "{'lat': 51.5074, 'lon': -0.1278}": {
        "error": "",
        "response": {
            "city_name": "London",
            "country_code": "GB",
            "data": [
                {
                    "aqi": 58,
                    "co": 200,
                    "mold_level": 1,
                    "no2": 26.714285,
                    "o3": 36.714287,
                    "pm10": 21,
                    "pm25": 15.75,
                    "pollen_level_grass": 1,
                    "pollen_level_tree": 1,
                    "pollen_level_weed": 1,
                    "predominant_pollen_type": "Molds",
                    "so2": 4
                }
            ],
            "lat": 51.5074,
            "lon": -0.1278,
            "state_code": "ENG",
            "timezone": "Europe/London"
        }
    },
    "{'lon': '-74.0060', 'lat': '40.7128'}": {
        "error": "",
        "response": {
            "city_name": "New York City",
            "country_code": "US",
            "data": [
                {
                    "aqi": 101,
                    "co": 165,
                    "mold_level": 1,
                    "no2": 16,
                    "o3": 163,
                    "pm10": 10,
                    "pm25": 9,
                    "pollen_level_grass": 1,
                    "pollen_level_tree": 1,
                    "pollen_level_weed": 1,
                    "predominant_pollen_type": "Molds",
                    "so2": 10
                }
            ],
            "lat": 40.7128,
            "lon": -74.006,
            "state_code": "NY",
            "timezone": "America/New_York"
        }
    },
    "{'lat': '25.7907', 'lon': '-80.1300'}": {
        "error": "",
        "response": {
            "city_name": "Miami Beach",
            "country_code": "US",
            "data": [
                {
                    "aqi": 37,
                    "co": 62,
                    "mold_level": 0,
                    "no2": 1,
                    "o3": 62,
                    "pm10": 16,
                    "pm25": 9,
                    "pollen_level_grass": 0,
                    "pollen_level_tree": 0,
                    "pollen_level_weed": 0,
                    "predominant_pollen_type": "Molds",
                    "so2": 2
                }
            ],
            "lat": 25.7907,
            "lon": -80.13,
            "state_code": "FL",
            "timezone": "America/New_York"
        }
    },
    "{'lat': '40.7128', 'lon': '-74.0060'}": {
        "error": "",
        "response": {
            "city_name": "New York City",
            "country_code": "US",
            "data": [
                {
                    "aqi": 89,
                    "co": 238,
                    "mold_level": 1,
                    "no2": 41,
                    "o3": 63,
                    "pm10": 43,
                    "pm25": 30,
                    "pollen_level_grass": 2,
                    "pollen_level_tree": 1,
                    "pollen_level_weed": 1,
                    "predominant_pollen_type": "Grasses",
                    "so2": 36
                }
            ],
            "lat": 40.7128,
            "lon": -74.006,
            "state_code": "NY",
            "timezone": "America/New_York"
        }
    },
    "{'lat': 40.7128, 'lon': '-74.0060'}": {
        "error": "",
        "response": {
            "city_name": "New York City",
            "country_code": "US",
            "data": [
                {
                    "aqi": 89,
                    "co": 238,
                    "mold_level": 1,
                    "no2": 41,
                    "o3": 63,
                    "pm10": 43,
                    "pm25": 30,
                    "pollen_level_grass": 2,
                    "pollen_level_tree": 1,
                    "pollen_level_weed": 1,
                    "predominant_pollen_type": "Grasses",
                    "so2": 36
                }
            ],
            "lat": 40.7128,
            "lon": -74.006,
            "state_code": "NY",
            "timezone": "America/New_York"
        }
    },
    "{'lat': '40.7128', 'lon': '-74.006'}": {
        "error": "",
        "response": {
            "city_name": "New York City",
            "country_code": "US",
            "data": [
                {
                    "aqi": 89,
                    "co": 238,
                    "mold_level": 1,
                    "no2": 41,
                    "o3": 63,
                    "pm10": 43,
                    "pm25": 30,
                    "pollen_level_grass": 2,
                    "pollen_level_tree": 1,
                    "pollen_level_weed": 1,
                    "predominant_pollen_type": "Grasses",
                    "so2": 36
                }
            ],
            "lat": 40.7128,
            "lon": -74.006,
            "state_code": "NY",
            "timezone": "America/New_York"
        }
    },
    "{'lat': '25.7934', 'lon': '-80.1349'}": {
        "error": "",
        "response": {
            "city_name": "Miami Beach",
            "country_code": "US",
            "data": [
                {
                    "aqi": 37,
                    "co": 62,
                    "mold_level": 0,
                    "no2": 1,
                    "o3": 62,
                    "pm10": 16,
                    "pm25": 9,
                    "pollen_level_grass": 0,
                    "pollen_level_tree": 0,
                    "pollen_level_weed": 0,
                    "predominant_pollen_type": "Molds",
                    "so2": 2
                }
            ],
            "lat": 25.7934,
            "lon": -80.1349,
            "state_code": "FL",
            "timezone": "America/New_York"
        }
    },
    "{'lon': '-118.2437', 'lat': '34.0522'}": {
        "error": "",
        "response": {
            "city_name": "Los Angeles",
            "country_code": "US",
            "data": [
                {
                    "aqi": 89,
                    "co": 227,
                    "mold_level": 1,
                    "no2": 70,
                    "o3": 20,
                    "pm10": 43,
                    "pm25": 30,
                    "pollen_level_grass": 0,
                    "pollen_level_tree": 2,
                    "pollen_level_weed": 1,
                    "predominant_pollen_type": "Trees",
                    "so2": 46
                }
            ],
            "lat": 34.0522,
            "lon": -118.2437,
            "state_code": "CA",
            "timezone": "America/Los_Angeles"
        }
    },
    "{'lon': -74.006, 'lat': 40.7128}": {
        "error": "",
        "response": {
            "city_name": "New York City",
            "country_code": "US",
            "data": [
                {
                    "aqi": 63,
                    "co": 141,
                    "mold_level": 0,
                    "no2": 7,
                    "o3": 128,
                    "pm10": 18,
                    "pm25": 18,
                    "pollen_level_grass": 1,
                    "pollen_level_tree": 1,
                    "pollen_level_weed": 1,
                    "predominant_pollen_type": "Trees",
                    "so2": 10
                }
            ],
            "lat": 40.7128,
            "lon": -74.006,
            "state_code": "NY",
            "timezone": "America/New_York"
        }
    },
    "{'lat': '21.3069', 'lon': '-157.8583'}": {
        "error": "",
        "response": {
            "city_name": "Honolulu",
            "country_code": "US",
            "data": [
                {
                    "aqi": 20,
                    "co": 53,
                    "mold_level": 0,
                    "no2": 0,
                    "o3": 44,
                    "pm10": 10,
                    "pm25": 3,
                    "pollen_level_grass": 0,
                    "pollen_level_tree": 0,
                    "pollen_level_weed": 0,
                    "predominant_pollen_type": "Molds",
                    "so2": 0
                }
            ],
            "lat": 21.3069,
            "lon": -157.8583,
            "state_code": "HI",
            "timezone": "Pacific/Honolulu"
        }
    },
    "{'lat': 40.7128, 'lon': -74.006}": {
        "error": "",
        "response": {
            "city_name": "New York City",
            "country_code": "US",
            "data": [
                {
                    "aqi": 63,
                    "co": 145,
                    "mold_level": 0,
                    "no2": 8,
                    "o3": 122,
                    "pm10": 18,
                    "pm25": 18,
                    "pollen_level_grass": 1,
                    "pollen_level_tree": 1,
                    "pollen_level_weed": 1,
                    "predominant_pollen_type": "Trees",
                    "so2": 3
                }
            ],
            "lat": 40.7128,
            "lon": -74.006,
            "state_code": "NY",
            "timezone": "America/New_York"
        }
    },
    "{'lon': '40.7128', 'lat': '-74.0060'}": {
        "error": "",
        "response": {
            "city_name": "Port-aux-Français",
            "country_code": "TF",
            "data": [
                {
                    "aqi": 25,
                    "co": 34,
                    "mold_level": 0,
                    "no2": 0,
                    "o3": 53,
                    "pm10": 0,
                    "pm25": 0,
                    "pollen_level_grass": 0,
                    "pollen_level_tree": 0,
                    "pollen_level_weed": 0,
                    "predominant_pollen_type": "Molds",
                    "so2": 0
                }
            ],
            "lat": -74.006,
            "lon": 40.7128,
            "state_code": "03",
            "timezone": "Indian/Kerguelen"
        }
    },
    "{'lat': '34.0536', 'lon': '-118.245'}": {
        "error": "",
        "response": {
            "city_name": "Los Angeles",
            "country_code": "US",
            "data": [
                {
                    "aqi": 59,
                    "co": 210,
                    "mold_level": 1,
                    "no2": 64,
                    "o3": 23,
                    "pm10": 19,
                    "pm25": 16,
                    "pollen_level_grass": 0,
                    "pollen_level_tree": 2,
                    "pollen_level_weed": 1,
                    "predominant_pollen_type": "Trees",
                    "so2": 46
                }
            ],
            "lat": 34.0536,
            "lon": -118.245,
            "state_code": "CA",
            "timezone": "America/Los_Angeles"
        }
    },
    "{'lat': '37.8651', 'lon': '-119.5383'}": {
        "error": "",
        "response": {
            "city_name": "White Wolf",
            "country_code": "US",
            "data": [
                {
                    "aqi": 43,
                    "co": 82,
                    "mold_level": 0,
                    "no2": 2,
                    "o3": 94,
                    "pm10": 19,
                    "pm25": 8,
                    "pollen_level_grass": 0,
                    "pollen_level_tree": 3,
                    "pollen_level_weed": 1,
                    "predominant_pollen_type": "Trees",
                    "so2": 4
                }
            ],
            "lat": 37.8651,
            "lon": -119.5383,
            "state_code": "CA",
            "timezone": "America/Los_Angeles"
        }
    },
    "{'lat': '42.3601', 'lon': '-71.0589'}": {
        "error": "",
        "response": {
            "city_name": "Boston",
            "country_code": "US",
            "data": [
                {
                    "aqi": 48,
                    "co": 114,
                    "mold_level": 0,
                    "no2": 2,
                    "o3": 103,
                    "pm10": 11,
                    "pm25": 7,
                    "pollen_level_grass": 1,
                    "pollen_level_tree": 1,
                    "pollen_level_weed": 1,
                    "predominant_pollen_type": "Trees",
                    "so2": 1
                }
            ],
            "lat": 42.3601,
            "lon": -71.0589,
            "state_code": "MA",
            "timezone": "America/New_York"
        }
    },
    "{'lat': '37.0902', 'lon': '-95.7129'}": {
        "error": "",
        "response": {
            "city_name": "Dearing",
            "country_code": "US",
            "data": [
                {
                    "aqi": 61,
                    "co": 118,
                    "mold_level": 1,
                    "no2": 2,
                    "o3": 62,
                    "pm10": 24,
                    "pm25": 17,
                    "pollen_level_grass": 3,
                    "pollen_level_tree": 1,
                    "pollen_level_weed": 1,
                    "predominant_pollen_type": "Grasses",
                    "so2": 1
                }
            ],
            "lat": 37.0902,
            "lon": -95.7129,
            "state_code": "KS",
            "timezone": "America/Chicago"
        }
    },
    "{'lat': '39.8283', 'lon': '-98.5795'}": {
        "error": "",
        "response": {
            "city_name": "Lebanon",
            "country_code": "US",
            "data": [
                {
                    "aqi": 52,
                    "co": 122,
                    "mold_level": 0,
                    "no2": 3,
                    "o3": 59,
                    "pm10": 18,
                    "pm25": 13,
                    "pollen_level_grass": 2,
                    "pollen_level_tree": 1,
                    "pollen_level_weed": 3,
                    "predominant_pollen_type": "Weeds",
                    "so2": 3
                }
            ],
            "lat": 39.8283,
            "lon": -98.5795,
            "state_code": "KS",
            "timezone": "America/Chicago"
        }
    },
    "{'lat': '47.6062', 'lon': '-122.3321'}": {
        "error": "",
        "response": {
            "city_name": "Seattle",
            "country_code": "US",
            "data": [
                {
                    "aqi": 33,
                    "co": 117,
                    "mold_level": 0,
                    "no2": 5,
                    "o3": 68,
                    "pm10": 12,
                    "pm25": 8,
                    "pollen_level_grass": 2,
                    "pollen_level_tree": 1,
                    "pollen_level_weed": 1,
                    "predominant_pollen_type": "Grasses",
                    "so2": 10
                }
            ],
            "lat": 47.6062,
            "lon": -122.3321,
            "state_code": "WA",
            "timezone": "America/Los_Angeles"
        }
    },
    "{'lat': '33.6846', 'lon': '-117.8265'}": {
        "error": "",
        "response": {
            "city_name": "Irvine",
            "country_code": "US",
            "data": [
                {
                    "aqi": 33,
                    "co": 119,
                    "mold_level": 1,
                    "no2": 7,
                    "o3": 59,
                    "pm10": 13,
                    "pm25": 8,
                    "pollen_level_grass": 1,
                    "pollen_level_tree": 2,
                    "pollen_level_weed": 2,
                    "predominant_pollen_type": "Trees",
                    "so2": 12
                }
            ],
            "lat": 33.6846,
            "lon": -117.8265,
            "state_code": "CA",
            "timezone": "America/Los_Angeles"
        }
    },
    "{'lat': '47.7962', 'lon': '-121.9446'}": {
        "error": "",
        "response": {
            "city_name": "High Rock",
            "country_code": "US",
            "data": [
                {
                    "aqi": 46,
                    "co": 104,
                    "mold_level": 0,
                    "no2": 1,
                    "o3": 98,
                    "pm10": 17,
                    "pm25": 11,
                    "pollen_level_grass": 2,
                    "pollen_level_tree": 1,
                    "pollen_level_weed": 1,
                    "predominant_pollen_type": "Grasses",
                    "so2": 5
                }
            ],
            "lat": 47.7962,
            "lon": -121.9446,
            "state_code": "WA",
            "timezone": "America/Los_Angeles"
        }
    },
    "{'lat': '44.4280', 'lon': '-110.5885'}": {
        "error": "",
        "response": {
            "city_name": "West Thumb",
            "country_code": "US",
            "data": [
                {
                    "aqi": 51,
                    "co": 89,
                    "mold_level": 0,
                    "no2": 0,
                    "o3": 111,
                    "pm10": 14,
                    "pm25": 9,
                    "pollen_level_grass": 0,
                    "pollen_level_tree": 0,
                    "pollen_level_weed": 0,
                    "predominant_pollen_type": "Molds",
                    "so2": 0
                }
            ],
            "lat": 44.428,
            "lon": -110.5885,
            "state_code": "WY",
            "timezone": "America/Denver"
        }
    },
    "{'lat': '37.732', 'lon': '-119.573'}": {
        "error": "",
        "response": {
            "city_name": "Curry Village",
            "country_code": "US",
            "data": [
                {
                    "aqi": 69,
                    "co": 86,
                    "mold_level": 0,
                    "no2": 0,
                    "o3": 135,
                    "pm10": 11,
                    "pm25": 7,
                    "pollen_level_grass": 0,
                    "pollen_level_tree": 3,
                    "pollen_level_weed": 1,
                    "predominant_pollen_type": "Trees",
                    "so2": 3
                }
            ],
            "lat": 37.732,
            "lon": -119.573,
            "state_code": "CA",
            "timezone": "America/Los_Angeles"
        }
    },
    "{'lat': '37.7489', 'lon': '-119.5875'}": {
        "error": "",
        "response": {
            "city_name": "Yosemite Village",
            "country_code": "US",
            "data": [
                {
                    "aqi": 69,
                    "co": 86,
                    "mold_level": 0,
                    "no2": 0,
                    "o3": 135,
                    "pm10": 11,
                    "pm25": 7,
                    "pollen_level_grass": 0,
                    "pollen_level_tree": 3,
                    "pollen_level_weed": 1,
                    "predominant_pollen_type": "Trees",
                    "so2": 3
                }
            ],
            "lat": 37.7489,
            "lon": -119.5875,
            "state_code": "CA",
            "timezone": "America/Los_Angeles"
        }
    },
    "{'lat': '37.7971', 'lon': '-119.5365'}": {
        "error": "",
        "response": {
            "city_name": "Curry Village",
            "country_code": "US",
            "data": [
                {
                    "aqi": 69,
                    "co": 86,
                    "mold_level": 0,
                    "no2": 0,
                    "o3": 135,
                    "pm10": 11,
                    "pm25": 7,
                    "pollen_level_grass": 0,
                    "pollen_level_tree": 3,
                    "pollen_level_weed": 1,
                    "predominant_pollen_type": "Trees",
                    "so2": 3
                }
            ],
            "lat": 37.7971,
            "lon": -119.5365,
            "state_code": "CA",
            "timezone": "America/Los_Angeles"
        }
    },
    "{'lat': '39.9526', 'lon': '-75.1652'}": {
        "error": "",
        "response": {
            "city_name": "Philadelphia",
            "country_code": "US",
            "data": [
                {
                    "aqi": 47,
                    "co": 164,
                    "mold_level": 0,
                    "no2": 13,
                    "o3": 51,
                    "pm10": 15,
                    "pm25": 11.25,
                    "pollen_level_grass": 2,
                    "pollen_level_tree": 1,
                    "pollen_level_weed": 1,
                    "predominant_pollen_type": "Grasses",
                    "so2": 4
                }
            ],
            "lat": 39.9526,
            "lon": -75.1652,
            "state_code": "PA",
            "timezone": "America/New_York"
        }
    },
    "{'lat': 45.4215, 'lon': -75.6988}": {
        "error": "",
        "response": {
            "city_name": "Ottawa",
            "country_code": "CA",
            "data": [
                {
                    "aqi": 33,
                    "co": 120,
                    "mold_level": 0,
                    "no2": 3,
                    "o3": 49,
                    "pm10": 14,
                    "pm25": 8,
                    "pollen_level_grass": 2,
                    "pollen_level_tree": 1,
                    "pollen_level_weed": 1,
                    "predominant_pollen_type": "Grasses",
                    "so2": 3
                }
            ],
            "lat": 45.4215,
            "lon": -75.6988,
            "state_code": "08",
            "timezone": "America/Toronto"
        }
    },
    "{'lat': '45.4215', 'lon': '-75.6988'}": {
        "error": "",
        "response": {
            "city_name": "Ottawa",
            "country_code": "CA",
            "data": [
                {
                    "aqi": 33,
                    "co": 120,
                    "mold_level": 0,
                    "no2": 3,
                    "o3": 49,
                    "pm10": 14,
                    "pm25": 8,
                    "pollen_level_grass": 2,
                    "pollen_level_tree": 1,
                    "pollen_level_weed": 1,
                    "predominant_pollen_type": "Grasses",
                    "so2": 3
                }
            ],
            "lat": 45.4215,
            "lon": -75.6988,
            "state_code": "08",
            "timezone": "America/Toronto"
        }
    },
    "{'lat': '0', 'lon': '0'}": {
        "error": "",
        "response": {
            "city_name": "Takoradi",
            "country_code": "GH",
            "data": [
                {
                    "aqi": 55,
                    "co": 92,
                    "mold_level": 0,
                    "no2": 11,
                    "o3": 118,
                    "pm10": 29,
                    "pm25": 9,
                    "pollen_level_grass": 0,
                    "pollen_level_tree": 0,
                    "pollen_level_weed": 0,
                    "predominant_pollen_type": "Molds",
                    "so2": 1
                }
            ],
            "lat": 0,
            "lon": 0,
            "state_code": "09",
            "timezone": "Africa/Accra"
        }
    },
    "{'lat': '36.1070', 'lon': '-112.1130'}": {
        "error": "",
        "response": {
            "city_name": "Grand Canyon",
            "country_code": "US",
            "data": [
                {
                    "aqi": 37,
                    "co": 100,
                    "mold_level": 1,
                    "no2": 1,
                    "o3": 81,
                    "pm10": 12,
                    "pm25": 4,
                    "pollen_level_grass": 1,
                    "pollen_level_tree": 2,
                    "pollen_level_weed": 2,
                    "predominant_pollen_type": "Trees",
                    "so2": 2
                }
            ],
            "lat": 36.107,
            "lon": -112.113,
            "state_code": "AZ",
            "timezone": "America/Phoenix"
        }
    },
    "{'lat': '39.0915', 'lon': '-108.5498'}": {
        "error": "",
        "response": {
            "city_name": "Grand Junction",
            "country_code": "US",
            "data": [
                {
                    "aqi": 36,
                    "co": 76,
                    "mold_level": 0,
                    "no2": 1,
                    "o3": 77,
                    "pm10": 6,
                    "pm25": 4,
                    "pollen_level_grass": 0,
                    "pollen_level_tree": 0,
                    "pollen_level_weed": 0,
                    "predominant_pollen_type": "Molds",
                    "so2": 1
                }
            ],
            "lat": 39.0915,
            "lon": -108.5498,
            "state_code": "CO",
            "timezone": "America/Denver"
        }
    },
    "{'lat': 37.7749, 'lon': -122.4194}": {
        "error": "",
        "response": {
            "city_name": "San Francisco",
            "country_code": "US",
            "data": [
                {
                    "aqi": 41,
                    "co": 78,
                    "mold_level": 0,
                    "no2": 4,
                    "o3": 54,
                    "pm10": 13,
                    "pm25": 9.75,
                    "pollen_level_grass": 0,
                    "pollen_level_tree": 3,
                    "pollen_level_weed": 1,
                    "predominant_pollen_type": "Trees",
                    "so2": 7
                }
            ],
            "lat": 37.7749,
            "lon": -122.4194,
            "state_code": "CA",
            "timezone": "America/Los_Angeles"
        }
    },
    "{'lat': '36.4864', 'lon': '-118.5658'}": {
        "error": "",
        "response": {
            "city_name": "Mineral King",
            "country_code": "US",
            "data": [
                {
                    "aqi": 88,
                    "co": 78,
                    "mold_level": 1,
                    "no2": 0,
                    "o3": 150,
                    "pm10": 25,
                    "pm25": 13,
                    "pollen_level_grass": 1,
                    "pollen_level_tree": 3,
                    "pollen_level_weed": 2,
                    "predominant_pollen_type": "Trees",
                    "so2": 3
                }
            ],
            "lat": 36.4864,
            "lon": -118.5658,
            "state_code": "CA",
            "timezone": "America/Los_Angeles"
        }
    },
    "{'lon': '-119.5383', 'lat': '37.8651'}": {
        "error": "",
        "response": {
            "city_name": "White Wolf",
            "country_code": "US",
            "data": [
                {
                    "aqi": 52,
                    "co": 93,
                    "mold_level": 1,
                    "no2": 1,
                    "o3": 122,
                    "pm10": 20,
                    "pm25": 7,
                    "pollen_level_grass": 1,
                    "pollen_level_tree": 3,
                    "pollen_level_weed": 2,
                    "predominant_pollen_type": "Trees",
                    "so2": 4
                }
            ],
            "lat": 37.8651,
            "lon": -119.5383,
            "state_code": "CA",
            "timezone": "America/Los_Angeles"
        }
    },
    "{'lat': '39.5501', 'lon': '-105.7821'}": {
        "error": "",
        "response": {
            "city_name": "Montezuma",
            "country_code": "US",
            "data": [
                {
                    "aqi": 29,
                    "co": 107,
                    "mold_level": 0,
                    "no2": 7,
                    "o3": 59,
                    "pm10": 12,
                    "pm25": 7,
                    "pollen_level_grass": 0,
                    "pollen_level_tree": 0,
                    "pollen_level_weed": 0,
                    "predominant_pollen_type": "Molds",
                    "so2": 2
                }
            ],
            "lat": 39.5501,
            "lon": -105.7821,
            "state_code": "CO",
            "timezone": "America/Denver"
        }
    },
    "{'lat': '39.9526', 'lon': '-105.5491'}": {
        "error": "",
        "response": {
            "city_name": "Eldora",
            "country_code": "US",
            "data": [
                {
                    "aqi": 33,
                    "co": 146,
                    "mold_level": 0,
                    "no2": 13,
                    "o3": 28,
                    "pm10": 15,
                    "pm25": 8,
                    "pollen_level_grass": 0,
                    "pollen_level_tree": 0,
                    "pollen_level_weed": 0,
                    "predominant_pollen_type": "Molds",
                    "so2": 6
                }
            ],
            "lat": 39.9526,
            "lon": -105.5491,
            "state_code": "CO",
            "timezone": "America/Denver"
        }
    },
    "{'lat': '37.2309', 'lon': '-80.4286'}": {
        "error": "",
        "response": {
            "city_name": "Karr Heights",
            "country_code": "US",
            "data": [
                {
                    "aqi": 42,
                    "co": 114,
                    "mold_level": 0,
                    "no2": 3,
                    "o3": 70,
                    "pm10": 14,
                    "pm25": 10,
                    "pollen_level_grass": 3,
                    "pollen_level_tree": 3,
                    "pollen_level_weed": 3,
                    "predominant_pollen_type": "Trees",
                    "so2": 3
                }
            ],
            "lat": 37.2309,
            "lon": -80.4286,
            "state_code": "VA",
            "timezone": "America/New_York"
        }
    },
    "{'lon': '-122.4194', 'lat': '37.7749'}": {
        "error": "",
        "response": {
            "city_name": "San Francisco",
            "country_code": "US",
            "data": [
                {
                    "aqi": 19,
                    "co": 63,
                    "mold_level": 0,
                    "no2": 8,
                    "o3": 31,
                    "pm10": 6,
                    "pm25": 4.5,
                    "pollen_level_grass": 0,
                    "pollen_level_tree": 3,
                    "pollen_level_weed": 1,
                    "predominant_pollen_type": "Trees",
                    "so2": 8
                }
            ],
            "lat": 37.7749,
            "lon": -122.4194,
            "state_code": "CA",
            "timezone": "America/Los_Angeles"
        }
    },
    "{'lat': 40.8914, 'lon': -73.068}": {
        "error": "",
        "response": {
            "city_name": "Terryville",
            "country_code": "US",
            "data": [
                {
                    "aqi": 22,
                    "co": 55,
                    "mold_level": 0,
                    "no2": 1,
                    "o3": 47,
                    "pm10": 8,
                    "pm25": 4,
                    "pollen_level_grass": 2,
                    "pollen_level_tree": 1,
                    "pollen_level_weed": 1,
                    "predominant_pollen_type": "Grasses",
                    "so2": 1
                }
            ],
            "lat": 40.8914,
            "lon": -73.068,
            "state_code": "NY",
            "timezone": "America/New_York"
        }
    },
    "{'lat': '39.1', 'lon': '-94.58'}": {
        "error": "",
        "response": {
            "city_name": "Kansas City",
            "country_code": "US",
            "data": [
                {
                    "aqi": 72,
                    "co": 166,
                    "mold_level": 3,
                    "no2": 20,
                    "o3": 44,
                    "pm10": 51,
                    "pm25": 22,
                    "pollen_level_grass": 2,
                    "pollen_level_tree": 1,
                    "pollen_level_weed": 3,
                    "predominant_pollen_type": "Molds",
                    "so2": 2
                }
            ],
            "lat": 39.1,
            "lon": -94.58,
            "state_code": "MO",
            "timezone": "America/Chicago"
        }
    },
    "{'lat': '38.89', 'lon': '-77.03'}": {
        "error": "",
        "response": {
            "city_name": "Washington, D.C.",
            "country_code": "US",
            "data": [
                {
                    "aqi": 31,
                    "co": 141,
                    "mold_level": 0,
                    "no2": 6,
                    "o3": 66,
                    "pm10": 30,
                    "pm25": 4,
                    "pollen_level_grass": 2,
                    "pollen_level_tree": 1,
                    "pollen_level_weed": 1,
                    "predominant_pollen_type": "Grasses",
                    "so2": 20
                }
            ],
            "lat": 38.89,
            "lon": -77.03,
            "state_code": "DC",
            "timezone": "America/New_York"
        }
    },
    "{'lat': '40.1234', 'lon': '-105.5678'}": {
        "error": "",
        "response": {
            "city_name": "Peaceful Valley",
            "country_code": "US",
            "data": [
                {
                    "aqi": 25,
                    "co": 149,
                    "mold_level": 0,
                    "no2": 13,
                    "o3": 29,
                    "pm10": 8,
                    "pm25": 6,
                    "pollen_level_grass": 0,
                    "pollen_level_tree": 0,
                    "pollen_level_weed": 0,
                    "predominant_pollen_type": "Molds",
                    "so2": 4
                }
            ],
            "lat": 40.1234,
            "lon": -105.5678,
            "state_code": "CO",
            "timezone": "America/Denver"
        }
    },
    "{'lat': '47.3769', 'lon': '8.5417'}": {
        "error": "",
        "response": {
            "city_name": "Zürich (Kreis 1) / Lindenhof",
            "country_code": "CH",
            "data": [
                {
                    "aqi": 50,
                    "co": 237.25,
                    "mold_level": 1,
                    "no2": 13.125,
                    "o3": 93.875,
                    "pm10": 24,
                    "pm25": 12,
                    "pollen_level_grass": 1,
                    "pollen_level_tree": 1,
                    "pollen_level_weed": 1,
                    "predominant_pollen_type": "Molds",
                    "so2": 1
                }
            ],
            "lat": 47.3769,
            "lon": 8.5417,
            "state_code": "ZH",
            "timezone": "Europe/Zurich"
        }
    },
    "{'lat': '41.8781', 'lon': '-87.6298'}": {
        "error": "",
        "response": {
            "city_name": "Chicago",
            "country_code": "US",
            "data": [
                {
                    "aqi": 46,
                    "co": 130,
                    "mold_level": 3,
                    "no2": 10,
                    "o3": 47,
                    "pm10": 25,
                    "pm25": 11,
                    "pollen_level_grass": 2,
                    "pollen_level_tree": 1,
                    "pollen_level_weed": 2,
                    "predominant_pollen_type": "Molds",
                    "so2": 9
                }
            ],
            "lat": 41.8781,
            "lon": -87.6298,
            "state_code": "IL",
            "timezone": "America/Chicago"
        }
    },
    "{'lat': 40.1234, 'lon': -74.4321}": {
        "error": "",
        "response": {
            "city_name": "Midwood",
            "country_code": "US",
            "data": [
                {
                    "aqi": 50,
                    "co": 153,
                    "mold_level": 0,
                    "no2": 7,
                    "o3": 120,
                    "pm10": 36,
                    "pm25": 8,
                    "pollen_level_grass": 2,
                    "pollen_level_tree": 1,
                    "pollen_level_weed": 1,
                    "predominant_pollen_type": "Grasses",
                    "so2": 15
                }
            ],
            "lat": 40.1234,
            "lon": -74.4321,
            "state_code": "NJ",
            "timezone": "America/New_York"
        }
    },
    "{'lat': '39.3', 'lon': '-120.2'}": {
        "error": "",
        "response": {
            "city_name": "Ponderosa Palisades",
            "country_code": "US",
            "data": [
                {
                    "aqi": 40,
                    "co": 87,
                    "mold_level": 0,
                    "no2": 3,
                    "o3": 87,
                    "pm10": 27,
                    "pm25": 8,
                    "pollen_level_grass": 2,
                    "pollen_level_tree": 1,
                    "pollen_level_weed": 1,
                    "predominant_pollen_type": "Grasses",
                    "so2": 4
                }
            ],
            "lat": 39.3,
            "lon": -120.2,
            "state_code": "CA",
            "timezone": "America/Los_Angeles"
        }
    },
    "{'lat': '37.7397', 'lon': '-122.4823'}": {
        "error": "",
        "response": {
            "city_name": "Daly City",
            "country_code": "US",
            "data": [
                {
                    "aqi": 21,
                    "co": 62,
                    "mold_level": 0,
                    "no2": 6,
                    "o3": 19,
                    "pm10": 8,
                    "pm25": 5,
                    "pollen_level_grass": 0,
                    "pollen_level_tree": 3,
                    "pollen_level_weed": 1,
                    "predominant_pollen_type": "Trees",
                    "so2": 6
                }
            ],
            "lat": 37.7397,
            "lon": -122.4823,
            "state_code": "CA",
            "timezone": "America/Los_Angeles"
        }
    },
    "{'lat': '37.78', 'lon': '-122.42'}": {
        "error": "",
        "response": {
            "city_name": "San Francisco",
            "country_code": "US",
            "data": [
                {
                    "aqi": 21,
                    "co": 62,
                    "mold_level": 0,
                    "no2": 6,
                    "o3": 19,
                    "pm10": 8,
                    "pm25": 5,
                    "pollen_level_grass": 0,
                    "pollen_level_tree": 3,
                    "pollen_level_weed": 1,
                    "predominant_pollen_type": "Trees",
                    "so2": 6
                }
            ],
            "lat": 37.78,
            "lon": -122.42,
            "state_code": "CA",
            "timezone": "America/Los_Angeles"
        }
    },
    "{'lat': '37.7771', 'lon': '-122.42'}": {
        "error": "",
        "response": {
            "city_name": "San Francisco",
            "country_code": "US",
            "data": [
                {
                    "aqi": 21,
                    "co": 62,
                    "mold_level": 0,
                    "no2": 6,
                    "o3": 19,
                    "pm10": 8,
                    "pm25": 5,
                    "pollen_level_grass": 0,
                    "pollen_level_tree": 3,
                    "pollen_level_weed": 1,
                    "predominant_pollen_type": "Trees",
                    "so2": 6
                }
            ],
            "lat": 37.7771,
            "lon": -122.42,
            "state_code": "CA",
            "timezone": "America/Los_Angeles"
        }
    },
    "{'lon': '122.4194', 'lat': '37.7749'}": {
        "error": "",
        "response": {
            "city_name": "Sunjiatuan",
            "country_code": "CN",
            "data": [
                {
                    "aqi": 104,
                    "co": 160,
                    "mold_level": 0,
                    "no2": 8,
                    "o3": 175,
                    "pm10": 50,
                    "pm25": 29,
                    "pollen_level_grass": 0,
                    "pollen_level_tree": 0,
                    "pollen_level_weed": 0,
                    "predominant_pollen_type": "Molds",
                    "so2": 8
                }
            ],
            "lat": 37.7749,
            "lon": 122.4194,
            "state_code": "25",
            "timezone": "Asia/Shanghai"
        }
    },
    "{'lon': '-73.9654', 'lat': '40.7829'}": {
        "error": "",
        "response": {
            "city_name": "Manhattan",
            "country_code": "US",
            "data": [
                {
                    "aqi": 37,
                    "co": 120,
                    "mold_level": 0,
                    "no2": 14,
                    "o3": 80,
                    "pm10": 11,
                    "pm25": 8,
                    "pollen_level_grass": 2,
                    "pollen_level_tree": 1,
                    "pollen_level_weed": 1,
                    "predominant_pollen_type": "Grasses",
                    "so2": 17
                }
            ],
            "lat": 40.7829,
            "lon": -73.9654,
            "state_code": "NY",
            "timezone": "America/New_York"
        }
    },
    "{'lat': '-37.8136', 'lon': '144.9631'}": {
        "error": "",
        "response": {
            "city_name": "Melbourne",
            "country_code": "AU",
            "data": [
                {
                    "aqi": 21,
                    "co": 53,
                    "mold_level": 0,
                    "no2": 5,
                    "o3": 39,
                    "pm10": 7,
                    "pm25": 5,
                    "pollen_level_grass": 0,
                    "pollen_level_tree": 0,
                    "pollen_level_weed": 0,
                    "predominant_pollen_type": "Molds",
                    "so2": 7
                }
            ],
            "lat": -37.8136,
            "lon": 144.9631,
            "state_code": "07",
            "timezone": "Australia/Melbourne"
        }
    },
    "{'lat': '33.6844', 'lon': '-117.8265'}": {
        "error": "",
        "response": {
            "city_name": "Irvine",
            "country_code": "US",
            "data": [
                {
                    "aqi": 74,
                    "co": 138,
                    "mold_level": 1,
                    "no2": 22,
                    "o3": 42,
                    "pm10": 76,
                    "pm25": 23,
                    "pollen_level_grass": 1,
                    "pollen_level_tree": 1,
                    "pollen_level_weed": 0,
                    "predominant_pollen_type": "Molds",
                    "so2": 9
                }
            ],
            "lat": 33.6844,
            "lon": -117.8265,
            "state_code": "CA",
            "timezone": "America/Los_Angeles"
        }
    },
    "{'lat': '37.8136', 'lon': '144.9631'}": {
        "error": "",
        "response": {
            "city_name": "Kamaishi",
            "country_code": "JP",
            "data": [
                {
                    "aqi": 52,
                    "co": 57,
                    "mold_level": 0,
                    "no2": 0,
                    "o3": 62,
                    "pm10": 23,
                    "pm25": 13,
                    "pollen_level_grass": 0,
                    "pollen_level_tree": 0,
                    "pollen_level_weed": 0,
                    "predominant_pollen_type": "Molds",
                    "so2": 4
                }
            ],
            "lat": 37.8136,
            "lon": 144.9631,
            "state_code": "16",
            "timezone": "Asia/Tokyo"
        }
    },
    "{'lat': '-34.9167', 'lon': '138.583'}": {
        "error": "",
        "response": {
            "city_name": "North Adelaide",
            "country_code": "AU",
            "data": [
                {
                    "aqi": 25,
                    "co": 45,
                    "mold_level": 0,
                    "no2": 2,
                    "o3": 55,
                    "pm10": 4,
                    "pm25": 2,
                    "pollen_level_grass": 0,
                    "pollen_level_tree": 0,
                    "pollen_level_weed": 0,
                    "predominant_pollen_type": "Molds",
                    "so2": 3
                }
            ],
            "lat": -34.9167,
            "lon": 138.583,
            "state_code": "05",
            "timezone": "Australia/Adelaide"
        }
    },
    "{'lon': '0', 'lat': '0'}": {
        "error": "",
        "response": {
            "city_name": "Takoradi",
            "country_code": "GH",
            "data": [
                {
                    "aqi": 59,
                    "co": 99,
                    "mold_level": 0,
                    "no2": 29,
                    "o3": 76,
                    "pm10": 30,
                    "pm25": 16,
                    "pollen_level_grass": 0,
                    "pollen_level_tree": 0,
                    "pollen_level_weed": 0,
                    "predominant_pollen_type": "Molds",
                    "so2": 1
                }
            ],
            "lat": 0,
            "lon": 0,
            "state_code": "09",
            "timezone": "Africa/Accra"
        }
    },
    "{'lon': '80.2785', 'lat': '13.0827'}": {
        "error": "",
        "response": {
            "city_name": "Chennai",
            "country_code": "IN",
            "data": [
                {
                    "aqi": 32,
                    "co": 123,
                    "mold_level": 0,
                    "no2": 6,
                    "o3": 56,
                    "pm10": 35,
                    "pm25": 6,
                    "pollen_level_grass": 0,
                    "pollen_level_tree": 0,
                    "pollen_level_weed": 0,
                    "predominant_pollen_type": "Molds",
                    "so2": 23
                }
            ],
            "lat": 13.0827,
            "lon": 80.2785,
            "state_code": "25",
            "timezone": "Asia/Kolkata"
        }
    },
    "{'lat': '57.15', 'lon': '2.35'}": {
        "error": "",
        "response": {
            "city_name": "Utsira",
            "country_code": "NO",
            "data": [
                {
                    "aqi": 72,
                    "co": 68,
                    "mold_level": 1,
                    "no2": 2,
                    "o3": 61,
                    "pm10": 43,
                    "pm25": 22,
                    "pollen_level_grass": 1,
                    "pollen_level_tree": 1,
                    "pollen_level_weed": 1,
                    "predominant_pollen_type": "Molds",
                    "so2": 2
                }
            ],
            "lat": 57.15,
            "lon": 2.35,
            "state_code": "14",
            "timezone": "Europe/Oslo"
        }
    },
    "{'lat': '57.15', 'lon': '-2.1'}": {
        "error": "",
        "response": {
            "city_name": "Aberdeen",
            "country_code": "GB",
            "data": [
                {
                    "aqi": 46,
                    "co": 61,
                    "mold_level": 1,
                    "no2": 27,
                    "o3": 58,
                    "pm10": 22,
                    "pm25": 11,
                    "pollen_level_grass": 1,
                    "pollen_level_tree": 1,
                    "pollen_level_weed": 1,
                    "predominant_pollen_type": "Molds",
                    "so2": 2
                }
            ],
            "lat": 57.15,
            "lon": -2.1,
            "state_code": "SCT",
            "timezone": "Europe/London"
        }
    },
    "{'lat': 39.9526, 'lon': -75.1652}": {
        "error": "",
        "response": {
            "city_name": "Philadelphia",
            "country_code": "US",
            "data": [
                {
                    "aqi": 54,
                    "co": 143,
                    "mold_level": 0,
                    "no2": 7,
                    "o3": 51,
                    "pm10": 21,
                    "pm25": 14,
                    "pollen_level_grass": 2,
                    "pollen_level_tree": 1,
                    "pollen_level_weed": 1,
                    "predominant_pollen_type": "Grasses",
                    "so2": 7
                }
            ],
            "lat": 39.9526,
            "lon": -75.1652,
            "state_code": "PA",
            "timezone": "America/New_York"
        }
    },
    "{'lat': 39.115, 'lon': -106.5136}": {
        "error": "",
        "response": {
            "city_name": "Everett",
            "country_code": "US",
            "data": [
                {
                    "aqi": 18,
                    "co": 90,
                    "mold_level": 0,
                    "no2": 7,
                    "o3": 39,
                    "pm10": 3,
                    "pm25": 2,
                    "pollen_level_grass": 0,
                    "pollen_level_tree": 0,
                    "pollen_level_weed": 0,
                    "predominant_pollen_type": "Molds",
                    "so2": 2
                }
            ],
            "lat": 39.115,
            "lon": -106.5136,
            "state_code": "CO",
            "timezone": "America/Denver"
        }
    },
    "{'lat': '41.8843', 'lon': '-87.6324'}": {
        "error": "",
        "response": {
            "city_name": "Chicago",
            "country_code": "US",
            "data": [
                {
                    "aqi": 46,
                    "co": 139,
                    "mold_level": 3,
                    "no2": 8,
                    "o3": 68,
                    "pm10": 15,
                    "pm25": 11,
                    "pollen_level_grass": 2,
                    "pollen_level_tree": 1,
                    "pollen_level_weed": 2,
                    "predominant_pollen_type": "Molds",
                    "so2": 6
                }
            ],
            "lat": 41.8843,
            "lon": -87.6324,
            "state_code": "IL",
            "timezone": "America/Chicago"
        }
    },
    "{'lat': 21.3069, 'lon': -157.8583}": {
        "error": "",
        "response": {
            "city_name": "Honolulu",
            "country_code": "US",
            "data": [
                {
                    "aqi": 37,
                    "co": 55,
                    "mold_level": 0,
                    "no2": 0,
                    "o3": 45,
                    "pm10": 17,
                    "pm25": 9,
                    "pollen_level_grass": 0,
                    "pollen_level_tree": 0,
                    "pollen_level_weed": 0,
                    "predominant_pollen_type": "Molds",
                    "so2": 0
                }
            ],
            "lat": 21.3069,
            "lon": -157.8583,
            "state_code": "HI",
            "timezone": "Pacific/Honolulu"
        }
    },
    "{'lat': 39.3, 'lon': -120.2}": {
        "error": "",
        "response": {
            "city_name": "Ponderosa Palisades",
            "country_code": "US",
            "data": [
                {
                    "aqi": 18,
                    "co": 118,
                    "mold_level": 1,
                    "no2": 10,
                    "o3": 38,
                    "pm10": 4,
                    "pm25": 3,
                    "pollen_level_grass": 2,
                    "pollen_level_tree": 1,
                    "pollen_level_weed": 1,
                    "predominant_pollen_type": "Grasses",
                    "so2": 2
                }
            ],
            "lat": 39.3,
            "lon": -120.2,
            "state_code": "CA",
            "timezone": "America/Los_Angeles"
        }
    },
    "{'lat': '45.123', 'lon': ' -78.456'}": {
        "error": "",
        "response": {
            "city_name": "Bancroft",
            "country_code": "CA",
            "data": [
                {
                    "aqi": 50,
                    "co": 112,
                    "mold_level": 0,
                    "no2": 1,
                    "o3": 61,
                    "pm10": 17,
                    "pm25": 12,
                    "pollen_level_grass": 2,
                    "pollen_level_tree": 1,
                    "pollen_level_weed": 1,
                    "predominant_pollen_type": "Grasses",
                    "so2": 3
                }
            ],
            "lat": 45.123,
            "lon": -78.456,
            "state_code": "08",
            "timezone": "America/Toronto"
        }
    },
    "{'lat': '45.123', 'lon': '-78.456'}": {
        "error": "",
        "response": {
            "city_name": "Bancroft",
            "country_code": "CA",
            "data": [
                {
                    "aqi": 50,
                    "co": 112,
                    "mold_level": 0,
                    "no2": 1,
                    "o3": 61,
                    "pm10": 17,
                    "pm25": 12,
                    "pollen_level_grass": 2,
                    "pollen_level_tree": 1,
                    "pollen_level_weed": 1,
                    "predominant_pollen_type": "Grasses",
                    "so2": 3
                }
            ],
            "lat": 45.123,
            "lon": -78.456,
            "state_code": "08",
            "timezone": "America/Toronto"
        }
    },
    "{'lat': '37.123', 'lon': '-118.456'}": {
        "error": "",
        "response": {
            "city_name": "Peterson Mill",
            "country_code": "US",
            "data": [
                {
                    "aqi": 50,
                    "co": 84,
                    "mold_level": 1,
                    "no2": 2,
                    "o3": 108,
                    "pm10": 11,
                    "pm25": 8,
                    "pollen_level_grass": 1,
                    "pollen_level_tree": 1,
                    "pollen_level_weed": 0,
                    "predominant_pollen_type": "Molds",
                    "so2": 3
                }
            ],
            "lat": 37.123,
            "lon": -118.456,
            "state_code": "CA",
            "timezone": "America/Los_Angeles"
        }
    },
    "{'lat': '37.1234', 'lon': '-122.5678'}": {
        "error": "",
        "response": {
            "city_name": "Pescadero",
            "country_code": "US",
            "data": [
                {
                    "aqi": 29,
                    "co": 87,
                    "mold_level": 1,
                    "no2": 13,
                    "o3": 10,
                    "pm10": 17,
                    "pm25": 7,
                    "pollen_level_grass": 1,
                    "pollen_level_tree": 1,
                    "pollen_level_weed": 0,
                    "predominant_pollen_type": "Molds",
                    "so2": 6
                }
            ],
            "lat": 37.1234,
            "lon": -122.5678,
            "state_code": "CA",
            "timezone": "America/Los_Angeles"
        }
    },
    "{'lat': '40.71', 'lon': '-74.01'}": {
        "error": "",
        "response": {
            "city_name": "New York City",
            "country_code": "US",
            "data": [
                {
                    "aqi": 50,
                    "co": 120,
                    "mold_level": 0,
                    "no2": 15,
                    "o3": 58,
                    "pm10": 17,
                    "pm25": 12,
                    "pollen_level_grass": 2,
                    "pollen_level_tree": 1,
                    "pollen_level_weed": 1,
                    "predominant_pollen_type": "Grasses",
                    "so2": 23
                }
            ],
            "lat": 40.71,
            "lon": -74.01,
            "state_code": "NY",
            "timezone": "America/New_York"
        }
    },
    "{'lat': '38.76', 'lon': '-91.2'}": {
        "error": "",
        "response": {
            "city_name": "Macedonia Neighborhood",
            "country_code": "US",
            "data": [
                {
                    "aqi": 37,
                    "co": 108,
                    "mold_level": 3,
                    "no2": 2,
                    "o3": 74,
                    "pm10": 12,
                    "pm25": 9,
                    "pollen_level_grass": 2,
                    "pollen_level_tree": 1,
                    "pollen_level_weed": 3,
                    "predominant_pollen_type": "Molds",
                    "so2": 5
                }
            ],
            "lat": 38.76,
            "lon": -91.2,
            "state_code": "MO",
            "timezone": "America/Chicago"
        }
    },
    "{'lat': '44.427964', 'lon': '-110.588455'}": {
        "error": "",
        "response": {
            "city_name": "West Thumb",
            "country_code": "US",
            "data": [
                {
                    "aqi": 43,
                    "co": 66,
                    "mold_level": 0,
                    "no2": 1,
                    "o3": 92,
                    "pm10": 9,
                    "pm25": 8,
                    "pollen_level_grass": 0,
                    "pollen_level_tree": 0,
                    "pollen_level_weed": 0,
                    "predominant_pollen_type": "Molds",
                    "so2": 2
                }
            ],
            "lat": 44.428,
            "lon": -110.5885,
            "state_code": "WY",
            "timezone": "America/Denver"
        }
    },
    "{'lat': '40.6413', 'lon': '-73.7781'}": {
        "error": "",
        "response": {
            "city_name": "Springfield Gardens",
            "country_code": "US",
            "data": [
                {
                    "aqi": 63,
                    "co": 131,
                    "mold_level": 2,
                    "no2": 13,
                    "o3": 94,
                    "pm10": 20,
                    "pm25": 18,
                    "pollen_level_grass": 2,
                    "pollen_level_tree": 1,
                    "pollen_level_weed": 1,
                    "predominant_pollen_type": "Molds",
                    "so2": 26
                }
            ],
            "lat": 40.6413,
            "lon": -73.7781,
            "state_code": "NY",
            "timezone": "America/New_York"
        }
    },
    "{'lat': '39.1911', 'lon': '-106.8175'}": {
        "error": "",
        "response": {
            "city_name": "Aspen",
            "country_code": "US",
            "data": [
                {
                    "aqi": 43,
                    "co": 62,
                    "mold_level": 0,
                    "no2": 0,
                    "o3": 92,
                    "pm10": 4,
                    "pm25": 3,
                    "pollen_level_grass": 0,
                    "pollen_level_tree": 0,
                    "pollen_level_weed": 0,
                    "predominant_pollen_type": "Molds",
                    "so2": 2
                }
            ],
            "lat": 39.1911,
            "lon": -106.8175,
            "state_code": "CO",
            "timezone": "America/Denver"
        }
    },
    "{'lat': '40.7829', 'lon': '-73.9654'}": {
        "error": "",
        "response": {
            "city_name": "Manhattan",
            "country_code": "US",
            "data": [
                {
                    "aqi": 63,
                    "co": 131,
                    "mold_level": 2,
                    "no2": 13,
                    "o3": 94,
                    "pm10": 20,
                    "pm25": 18,
                    "pollen_level_grass": 2,
                    "pollen_level_tree": 1,
                    "pollen_level_weed": 1,
                    "predominant_pollen_type": "Molds",
                    "so2": 26
                }
            ],
            "lat": 40.7829,
            "lon": -73.9654,
            "state_code": "NY",
            "timezone": "America/New_York"
        }
    },
    "{'lat': '36.1069652', 'lon': '-112.1129972'}": {
        "error": "",
        "response": {
            "city_name": "Grand Canyon",
            "country_code": "US",
            "data": [
                {
                    "aqi": 31,
                    "co": 77,
                    "mold_level": 1,
                    "no2": 1,
                    "o3": 66,
                    "pm10": 13,
                    "pm25": 4,
                    "pollen_level_grass": 0,
                    "pollen_level_tree": 1,
                    "pollen_level_weed": 1,
                    "predominant_pollen_type": "Molds",
                    "so2": 1
                }
            ],
            "lat": 36.107,
            "lon": -112.113,
            "state_code": "AZ",
            "timezone": "America/Phoenix"
        }
    },
    "{'lon': '-115.1398', 'lat': '36.1699'}": {
        "error": "",
        "response": {
            "city_name": "Las Vegas",
            "country_code": "US",
            "data": [
                {
                    "aqi": 54,
                    "co": 64,
                    "mold_level": 1,
                    "no2": 1,
                    "o3": 76,
                    "pm10": 61,
                    "pm25": 8,
                    "pollen_level_grass": 0,
                    "pollen_level_tree": 1,
                    "pollen_level_weed": 1,
                    "predominant_pollen_type": "Molds",
                    "so2": 1
                }
            ],
            "lat": 36.1699,
            "lon": -115.1398,
            "state_code": "NV",
            "timezone": "America/Los_Angeles"
        }
    },
    "{'lat': '36.1699', 'lon': '-115.1398'}": {
        "error": "",
        "response": {
            "city_name": "Las Vegas",
            "country_code": "US",
            "data": [
                {
                    "aqi": 54,
                    "co": 64,
                    "mold_level": 1,
                    "no2": 1,
                    "o3": 76,
                    "pm10": 61,
                    "pm25": 8,
                    "pollen_level_grass": 0,
                    "pollen_level_tree": 1,
                    "pollen_level_weed": 1,
                    "predominant_pollen_type": "Molds",
                    "so2": 1
                }
            ],
            "lat": 36.1699,
            "lon": -115.1398,
            "state_code": "NV",
            "timezone": "America/Los_Angeles"
        }
    },
    "{'lon': '-119.4179', 'lat': '36.7783'}": {
        "error": "",
        "response": {
            "city_name": "Gravesboro",
            "country_code": "US",
            "data": [
                {
                    "aqi": 98,
                    "co": 83,
                    "mold_level": 1,
                    "no2": 1,
                    "o3": 127,
                    "pm10": 151,
                    "pm25": 22,
                    "pollen_level_grass": 1,
                    "pollen_level_tree": 2,
                    "pollen_level_weed": 1,
                    "predominant_pollen_type": "Trees",
                    "so2": 4
                }
            ],
            "lat": 36.7783,
            "lon": -119.4179,
            "state_code": "CA",
            "timezone": "America/Los_Angeles"
        }
    },
    "{'lat': '25.7617', 'lon': '-80.1918'}": {
        "error": "",
        "response": {
            "city_name": "Miami",
            "country_code": "US",
            "data": [
                {
                    "aqi": 72,
                    "co": 54,
                    "mold_level": 0,
                    "no2": 0,
                    "o3": 59,
                    "pm10": 60,
                    "pm25": 22,
                    "pollen_level_grass": 0,
                    "pollen_level_tree": 0,
                    "pollen_level_weed": 0,
                    "predominant_pollen_type": "Molds",
                    "so2": 3
                }
            ],
            "lat": 25.7617,
            "lon": -80.1918,
            "state_code": "FL",
            "timezone": "America/New_York"
        }
    },
    "{'lat': '36.1069652', 'lon': '-112.1129974'}": {
        "error": "",
        "response": {
            "city_name": "Grand Canyon",
            "country_code": "US",
            "data": [
                {
                    "aqi": 42,
                    "co": 65,
                    "mold_level": 1,
                    "no2": 0,
                    "o3": 91,
                    "pm10": 16,
                    "pm25": 5,
                    "pollen_level_grass": 0,
                    "pollen_level_tree": 1,
                    "pollen_level_weed": 1,
                    "predominant_pollen_type": "Molds",
                    "so2": 1
                }
            ],
            "lat": 36.107,
            "lon": -112.113,
            "state_code": "AZ",
            "timezone": "America/Phoenix"
        }
    },
    "{'lon': '-157.8583', 'lat': '21.3069'}": {
        "error": "",
        "response": {
            "city_name": "Honolulu",
            "country_code": "US",
            "data": [
                {
                    "aqi": 20,
                    "co": 58,
                    "mold_level": 0,
                    "no2": 0,
                    "o3": 30,
                    "pm10": 22,
                    "pm25": 3,
                    "pollen_level_grass": 0,
                    "pollen_level_tree": 0,
                    "pollen_level_weed": 0,
                    "predominant_pollen_type": "Molds",
                    "so2": 0
                }
            ],
            "lat": 21.3069,
            "lon": -157.8583,
            "state_code": "HI",
            "timezone": "Pacific/Honolulu"
        }
    },
    "{'lat': '36.1069', 'lon': '-112.1129'}": {
        "error": "",
        "response": {
            "city_name": "Grand Canyon",
            "country_code": "US",
            "data": [
                {
                    "aqi": 42,
                    "co": 65,
                    "mold_level": 1,
                    "no2": 0,
                    "o3": 91,
                    "pm10": 16,
                    "pm25": 5,
                    "pollen_level_grass": 0,
                    "pollen_level_tree": 1,
                    "pollen_level_weed": 1,
                    "predominant_pollen_type": "Molds",
                    "so2": 1
                }
            ],
            "lat": 36.1069,
            "lon": -112.1129,
            "state_code": "AZ",
            "timezone": "America/Phoenix"
        }
    },
    "{'lat': 36.1069, 'lon': -112.1129}": {
        "error": "",
        "response": {
            "city_name": "Grand Canyon",
            "country_code": "US",
            "data": [
                {
                    "aqi": 42,
                    "co": 65,
                    "mold_level": 1,
                    "no2": 0,
                    "o3": 91,
                    "pm10": 16,
                    "pm25": 5,
                    "pollen_level_grass": 0,
                    "pollen_level_tree": 1,
                    "pollen_level_weed": 1,
                    "predominant_pollen_type": "Molds",
                    "so2": 1
                }
            ],
            "lat": 36.1069,
            "lon": -112.1129,
            "state_code": "AZ",
            "timezone": "America/Phoenix"
        }
    },
    "{'lat': '34.0194', 'lon': '-118.4912'}": {
        "error": "",
        "response": {
            "city_name": "Santa Monica",
            "country_code": "US",
            "data": [
                {
                    "aqi": 106,
                    "co": 202,
                    "mold_level": 1,
                    "no2": 35,
                    "o3": 180,
                    "pm10": 23,
                    "pm25": 9,
                    "pollen_level_grass": 0,
                    "pollen_level_tree": 1,
                    "pollen_level_weed": 1,
                    "predominant_pollen_type": "Molds",
                    "so2": 73
                }
            ],
            "lat": 34.0194,
            "lon": -118.4912,
            "state_code": "CA",
            "timezone": "America/Los_Angeles"
        }
    },
    "{'lat': '30.2672', 'lon': '-97.7431'}": {
        "error": "",
        "response": {
            "city_name": "Austin",
            "country_code": "US",
            "data": [
                {
                    "aqi": 42,
                    "co": 66,
                    "mold_level": 2,
                    "no2": 1,
                    "o3": 61,
                    "pm10": 15,
                    "pm25": 10,
                    "pollen_level_grass": 1,
                    "pollen_level_tree": 1,
                    "pollen_level_weed": 2,
                    "predominant_pollen_type": "Molds",
                    "so2": 1
                }
            ],
            "lat": 30.2672,
            "lon": -97.7431,
            "state_code": "TX",
            "timezone": "America/Chicago"
        }
    },
    "{'lat': 30.2672, 'lon': -97.7431}": {
        "error": "",
        "response": {
            "city_name": "Austin",
            "country_code": "US",
            "data": [
                {
                    "aqi": 42,
                    "co": 66,
                    "mold_level": 2,
                    "no2": 1,
                    "o3": 61,
                    "pm10": 15,
                    "pm25": 10,
                    "pollen_level_grass": 1,
                    "pollen_level_tree": 1,
                    "pollen_level_weed": 2,
                    "predominant_pollen_type": "Molds",
                    "so2": 1
                }
            ],
            "lat": 30.2672,
            "lon": -97.7431,
            "state_code": "TX",
            "timezone": "America/Chicago"
        }
    },
    "{'lat': '35.6762', 'lon': '139.6503'}": {
        "error": "",
        "response": {
            "city_name": "Tokyo",
            "country_code": "JP",
            "data": [
                {
                    "aqi": 123,
                    "co": 280,
                    "mold_level": 0,
                    "no2": 34,
                    "o3": 14,
                    "pm10": 64,
                    "pm25": 44,
                    "pollen_level_grass": 0,
                    "pollen_level_tree": 0,
                    "pollen_level_weed": 0,
                    "predominant_pollen_type": "Molds",
                    "so2": 101
                }
            ],
            "lat": 35.6762,
            "lon": 139.6503,
            "state_code": "40",
            "timezone": "Asia/Tokyo"
        }
    },
    "{'lat': '21.1619', 'lon': '-86.8515'}": {
        "error": "",
        "response": {
            "city_name": "Cancún",
            "country_code": "MX",
            "data": [
                {
                    "aqi": 50,
                    "co": 66,
                    "mold_level": 0,
                    "no2": 0,
                    "o3": 66,
                    "pm10": 22,
                    "pm25": 12,
                    "pollen_level_grass": 0,
                    "pollen_level_tree": 0,
                    "pollen_level_weed": 0,
                    "predominant_pollen_type": "Molds",
                    "so2": 2
                }
            ],
            "lat": 21.1619,
            "lon": -86.8515,
            "state_code": "23",
            "timezone": "America/Cancun"
        }
    },
    "{'lat': '-8.3405', 'lon': '115.0910'}": {
        "error": "",
        "response": {
            "city_name": "Wongaya Kaja",
            "country_code": "ID",
            "data": [
                {
                    "aqi": 33,
                    "co": 63,
                    "mold_level": 0,
                    "no2": 1,
                    "o3": 52,
                    "pm10": 14,
                    "pm25": 8,
                    "pollen_level_grass": 0,
                    "pollen_level_tree": 0,
                    "pollen_level_weed": 0,
                    "predominant_pollen_type": "Molds",
                    "so2": 3
                }
            ],
            "lat": -8.3405,
            "lon": 115.091,
            "state_code": "02",
            "timezone": "Asia/Makassar"
        }
    },
    "{'lat': -8.3405, 'lon': 115.091}": {
        "error": "",
        "response": {
            "city_name": "Wongaya Kaja",
            "country_code": "ID",
            "data": [
                {
                    "aqi": 33,
                    "co": 63,
                    "mold_level": 0,
                    "no2": 1,
                    "o3": 52,
                    "pm10": 14,
                    "pm25": 8,
                    "pollen_level_grass": 0,
                    "pollen_level_tree": 0,
                    "pollen_level_weed": 0,
                    "predominant_pollen_type": "Molds",
                    "so2": 3
                }
            ],
            "lat": -8.3405,
            "lon": 115.091,
            "state_code": "02",
            "timezone": "Asia/Makassar"
        }
    },
    "{'lat': '33.8688', 'lon': '151.2093'}": {
        "error": "",
        "response": {
            "city_name": "Hasaki",
            "country_code": "JP",
            "data": [
                {
                    "aqi": 63,
                    "co": 53,
                    "mold_level": 0,
                    "no2": 0,
                    "o3": 28,
                    "pm10": 34,
                    "pm25": 18,
                    "pollen_level_grass": 0,
                    "pollen_level_tree": 0,
                    "pollen_level_weed": 0,
                    "predominant_pollen_type": "Molds",
                    "so2": 0
                }
            ],
            "lat": 33.8688,
            "lon": 151.2093,
            "state_code": "04",
            "timezone": "Asia/Tokyo"
        }
    },
    "{'lat': '34.05', 'lon': '-118.24'}": {
        "error": "",
        "response": {
            "city_name": "Los Angeles",
            "country_code": "US",
            "data": [
                {
                    "aqi": 121,
                    "co": 125,
                    "mold_level": 1,
                    "no2": 5,
                    "o3": 231,
                    "pm10": 56,
                    "pm25": 27,
                    "pollen_level_grass": 0,
                    "pollen_level_tree": 1,
                    "pollen_level_weed": 1,
                    "predominant_pollen_type": "Molds",
                    "so2": 26
                }
            ],
            "lat": 34.05,
            "lon": -118.24,
            "state_code": "CA",
            "timezone": "America/Los_Angeles"
        }
    },
    "{'lat': '42.42', 'lon': '-87.86'}": {
        "error": "",
        "response": {
            "city_name": "Bancroft Corners",
            "country_code": "US",
            "data": [
                {
                    "aqi": 46,
                    "co": 65,
                    "mold_level": 3,
                    "no2": 0,
                    "o3": 59,
                    "pm10": 12,
                    "pm25": 11,
                    "pollen_level_grass": 2,
                    "pollen_level_tree": 1,
                    "pollen_level_weed": 2,
                    "predominant_pollen_type": "Molds",
                    "so2": 0
                }
            ],
            "lat": 42.42,
            "lon": -87.86,
            "state_code": "IL",
            "timezone": "America/Chicago"
        }
    },
    "{'lat': 42.42, 'lon': -87.86}": {
        "error": "",
        "response": {
            "city_name": "Bancroft Corners",
            "country_code": "US",
            "data": [
                {
                    "aqi": 46,
                    "co": 65,
                    "mold_level": 3,
                    "no2": 0,
                    "o3": 59,
                    "pm10": 12,
                    "pm25": 11,
                    "pollen_level_grass": 2,
                    "pollen_level_tree": 1,
                    "pollen_level_weed": 2,
                    "predominant_pollen_type": "Molds",
                    "so2": 0
                }
            ],
            "lat": 42.42,
            "lon": -87.86,
            "state_code": "IL",
            "timezone": "America/Chicago"
        }
    },
    "{'lat': 14.87, 'lon': -92.27}": {
        "error": "",
        "response": {
            "city_name": "Monte los Olivos",
            "country_code": "MX",
            "data": [
                {
                    "aqi": 65,
                    "co": 139,
                    "mold_level": 0,
                    "no2": 2,
                    "o3": 59,
                    "pm10": 28,
                    "pm25": 19,
                    "pollen_level_grass": 0,
                    "pollen_level_tree": 0,
                    "pollen_level_weed": 0,
                    "predominant_pollen_type": "Molds",
                    "so2": 7
                }
            ],
            "lat": 14.87,
            "lon": -92.27,
            "state_code": "05",
            "timezone": "America/Mexico_City"
        }
    },
    "{'lat': '33.4484', 'lon': '-112.0740'}": {
        "error": "",
        "response": {
            "city_name": "Phoenix",
            "country_code": "US",
            "data": [
                {
                    "aqi": 51,
                    "co": 70,
                    "mold_level": 1,
                    "no2": 1,
                    "o3": 110,
                    "pm10": 54,
                    "pm25": 2,
                    "pollen_level_grass": 0,
                    "pollen_level_tree": 1,
                    "pollen_level_weed": 1,
                    "predominant_pollen_type": "Molds",
                    "so2": 2
                }
            ],
            "lat": 33.4484,
            "lon": -112.074,
            "state_code": "AZ",
            "timezone": "America/Phoenix"
        }
    },
    "{'lat': '33.8121', 'lon': '-117.9190'}": {
        "error": "",
        "response": {
            "city_name": "Anaheim",
            "country_code": "US",
            "data": [
                {
                    "aqi": 82,
                    "co": 70,
                    "mold_level": 1,
                    "no2": 1,
                    "o3": 133,
                    "pm10": 62,
                    "pm25": 27,
                    "pollen_level_grass": 0,
                    "pollen_level_tree": 1,
                    "pollen_level_weed": 1,
                    "predominant_pollen_type": "Molds",
                    "so2": 7
                }
            ],
            "lat": 33.8121,
            "lon": -117.919,
            "state_code": "CA",
            "timezone": "America/Los_Angeles"
        }
    },
    "{'lon': '-122.3321', 'lat': '47.6062'}": {
        "error": "",
        "response": {
            "city_name": "Seattle",
            "country_code": "US",
            "data": [
                {
                    "aqi": 34,
                    "co": 79,
                    "mold_level": 0,
                    "no2": 1,
                    "o3": 73,
                    "pm10": 8,
                    "pm25": 5,
                    "pollen_level_grass": 2,
                    "pollen_level_tree": 1,
                    "pollen_level_weed": 1,
                    "predominant_pollen_type": "Grasses",
                    "so2": 2
                }
            ],
            "lat": 47.6062,
            "lon": -122.3321,
            "state_code": "WA",
            "timezone": "America/Los_Angeles"
        }
    },
    "{'lat': '21.2715', 'lon': '-157.8229'}": {
        "error": "",
        "response": {
            "city_name": "Kapahulu",
            "country_code": "US",
            "data": [
                {
                    "aqi": 37,
                    "co": 57,
                    "mold_level": 0,
                    "no2": 0,
                    "o3": 33,
                    "pm10": 40,
                    "pm25": 8,
                    "pollen_level_grass": 0,
                    "pollen_level_tree": 0,
                    "pollen_level_weed": 0,
                    "predominant_pollen_type": "Molds",
                    "so2": 1
                }
            ],
            "lat": 21.2715,
            "lon": -157.8229,
            "state_code": "HI",
            "timezone": "Pacific/Honolulu"
        }
    },
    "{'lat': '33.6412', 'lon': '-117.9187'}": {
        "error": "",
        "response": {
            "city_name": "Costa Mesa",
            "country_code": "US",
            "data": [
                {
                    "aqi": 76,
                    "co": 70,
                    "mold_level": 1,
                    "no2": 1,
                    "o3": 133,
                    "pm10": 44,
                    "pm25": 24,
                    "pollen_level_grass": 0,
                    "pollen_level_tree": 1,
                    "pollen_level_weed": 1,
                    "predominant_pollen_type": "Molds",
                    "so2": 7
                }
            ],
            "lat": 33.6412,
            "lon": -117.9187,
            "state_code": "CA",
            "timezone": "America/Los_Angeles"
        }
    },
    "{'lon': '-122.335167', 'lat': '47.6101'}": {
        "error": "",
        "response": {
            "city_name": "Seattle",
            "country_code": "US",
            "data": [
                {
                    "aqi": 34,
                    "co": 79,
                    "mold_level": 0,
                    "no2": 1,
                    "o3": 73,
                    "pm10": 8,
                    "pm25": 5,
                    "pollen_level_grass": 2,
                    "pollen_level_tree": 1,
                    "pollen_level_weed": 1,
                    "predominant_pollen_type": "Grasses",
                    "so2": 2
                }
            ],
            "lat": 47.6101,
            "lon": -122.3352,
            "state_code": "WA",
            "timezone": "America/Los_Angeles"
        }
    },
    "{'lat': '47.6097', 'lon': '-122.3331'}": {
        "error": "",
        "response": {
            "city_name": "Seattle",
            "country_code": "US",
            "data": [
                {
                    "aqi": 34,
                    "co": 79,
                    "mold_level": 0,
                    "no2": 1,
                    "o3": 73,
                    "pm10": 8,
                    "pm25": 5,
                    "pollen_level_grass": 2,
                    "pollen_level_tree": 1,
                    "pollen_level_weed": 1,
                    "predominant_pollen_type": "Grasses",
                    "so2": 2
                }
            ],
            "lat": 47.6097,
            "lon": -122.3331,
            "state_code": "WA",
            "timezone": "America/Los_Angeles"
        }
    },
    "{'lon': '-122.3352', 'lat': '47.6097'}": {
        "error": "",
        "response": {
            "city_name": "Seattle",
            "country_code": "US",
            "data": [
                {
                    "aqi": 34,
                    "co": 79,
                    "mold_level": 0,
                    "no2": 1,
                    "o3": 73,
                    "pm10": 8,
                    "pm25": 5,
                    "pollen_level_grass": 2,
                    "pollen_level_tree": 1,
                    "pollen_level_weed": 1,
                    "predominant_pollen_type": "Grasses",
                    "so2": 2
                }
            ],
            "lat": 47.6097,
            "lon": -122.3352,
            "state_code": "WA",
            "timezone": "America/Los_Angeles"
        }
    },
    "{'lon': '-122.3352', 'lat': '47.6101'}": {
        "error": "",
        "response": {
            "city_name": "Seattle",
            "country_code": "US",
            "data": [
                {
                    "aqi": 34,
                    "co": 79,
                    "mold_level": 0,
                    "no2": 1,
                    "o3": 73,
                    "pm10": 8,
                    "pm25": 5,
                    "pollen_level_grass": 2,
                    "pollen_level_tree": 1,
                    "pollen_level_weed": 1,
                    "predominant_pollen_type": "Grasses",
                    "so2": 2
                }
            ],
            "lat": 47.6101,
            "lon": -122.3352,
            "state_code": "WA",
            "timezone": "America/Los_Angeles"
        }
    },
    "{'lat': '33.6846', 'lon': '-118.1639'}": {
        "error": "",
        "response": {
            "city_name": "Seal Beach",
            "country_code": "US",
            "data": [
                {
                    "aqi": 76,
                    "co": 72,
                    "mold_level": 1,
                    "no2": 3,
                    "o3": 132,
                    "pm10": 44,
                    "pm25": 24,
                    "pollen_level_grass": 0,
                    "pollen_level_tree": 1,
                    "pollen_level_weed": 1,
                    "predominant_pollen_type": "Molds",
                    "so2": 11
                }
            ],
            "lat": 33.6846,
            "lon": -118.1639,
            "state_code": "CA",
            "timezone": "America/Los_Angeles"
        }
    },
    "{'lat': 33.6846, 'lon': -118.1639}": {
        "error": "",
        "response": {
            "city_name": "Seal Beach",
            "country_code": "US",
            "data": [
                {
                    "aqi": 76,
                    "co": 72,
                    "mold_level": 1,
                    "no2": 3,
                    "o3": 132,
                    "pm10": 44,
                    "pm25": 24,
                    "pollen_level_grass": 0,
                    "pollen_level_tree": 1,
                    "pollen_level_weed": 1,
                    "predominant_pollen_type": "Molds",
                    "so2": 11
                }
            ],
            "lat": 33.6846,
            "lon": -118.1639,
            "state_code": "CA",
            "timezone": "America/Los_Angeles"
        }
    },
    "{'lat': '48.8599', 'lon': '-121.6233'}": {
        "error": "",
        "response": {
            "city_name": "Boundary",
            "country_code": "US",
            "data": [
                {
                    "aqi": 37,
                    "co": 79,
                    "mold_level": 0,
                    "no2": 1,
                    "o3": 80,
                    "pm10": 18,
                    "pm25": 7,
                    "pollen_level_grass": 2,
                    "pollen_level_tree": 1,
                    "pollen_level_weed": 1,
                    "predominant_pollen_type": "Grasses",
                    "so2": 1
                }
            ],
            "lat": 48.8599,
            "lon": -121.6233,
            "state_code": "WA",
            "timezone": "America/Los_Angeles"
        }
    },