{
    "{'limit': 22}": {
        "error": "",
        "response": "{'getSharedBOF2.Downloads.Car.Cities': {'results': {'status': 'Success', 'status_code': 100, 'resume_key': '_aCeJ_mtLfGSK8ZVebRrKExqFmvzCcSqANSMgsahXF5mn7gdPM8YVjxRrm6exum1C7DHO6z2SKblv6vbWCp6Q1g', 'cities': {'city_0': {'cityid_ppn': '800000000', 'city': 'Cooper Landing', 'state_code': 'AK', 'country_code': 'US', 'latitude': '60.49', 'longitude': '-149.834'}, 'city_1': {'cityid_ppn': '800000002', 'city': 'Dillingham', 'state_code': 'AK', 'country_code': 'US', 'latitude': '59.0397', 'longitude': '-158.458'}, 'city_2': {'cityid_ppn': '800000005', 'city': 'Kasilof', 'state_code': 'AK', 'country_code': 'US', 'latitude': '60.3375', 'longitude': '-151.274'}, 'city_3': {'cityid_ppn': '800000006', 'city': 'Palmer', 'state_code': 'AK', 'country_code': 'US', 'latitude': '61.5997', 'longitude': '-149.113'}, 'city_4': {'cityid_ppn': '800000007', 'city': 'Abbeville', 'state_code': 'AL', 'country_code': 'US', 'latitude': '31.5717', 'longitude': '-85.2506'}, 'city_5': {'cityid_ppn': '800000008', 'city': 'Alabaster', 'state_code': 'AL', 'country_code': 'US', 'latitude': '33.2442', 'longitude': '-86.8164'}, 'city_6': {'cityid_ppn': '800000009', 'city': 'Arab', 'state_code': 'AL', 'country_code': 'US', 'latitude': '34.3181', 'longitude': '-86.4958'}, 'city_7': {'cityid_ppn': '800000010', 'city': 'Bay Minette', 'state_code': 'AL', 'country_code': 'US', 'latitude': '30.8828', 'longitude': '-87.7731'}, 'city_8': {'cityid_ppn': '800000011', 'city': 'Boaz', 'state_code': 'AL', 'country_code': 'US',"
    },
    "{'limit': 100}": {
        "error": "",
        "response": "{'getSharedBOF2.Downloads.Car.Cities': {'results': {'status': 'Success', 'status_code': 100, 'resume_key': '_i5t8DtBOL_TQYM5NHcDzyUmfBM1K-Sv5pGYjh61rsBGUAudXn2ogQTfFuu4Qso-EutjeymKdGJFWWSlDXPtHvw', 'cities': {'city_0': {'cityid_ppn': '800000000', 'city': 'Cooper Landing', 'state_code': 'AK', 'country_code': 'US', 'latitude': '60.49', 'longitude': '-149.834'}, 'city_1': {'cityid_ppn': '800000002', 'city': 'Dillingham', 'state_code': 'AK', 'country_code': 'US', 'latitude': '59.0397', 'longitude': '-158.458'}, 'city_2': {'cityid_ppn': '800000005', 'city': 'Kasilof', 'state_code': 'AK', 'country_code': 'US', 'latitude': '60.3375', 'longitude': '-151.274'}, 'city_3': {'cityid_ppn': '800000006', 'city': 'Palmer', 'state_code': 'AK', 'country_code': 'US', 'latitude': '61.5997', 'longitude': '-149.113'}, 'city_4': {'cityid_ppn': '800000007', 'city': 'Abbeville', 'state_code': 'AL', 'country_code': 'US', 'latitude': '31.5717', 'longitude': '-85.2506'}, 'city_5': {'cityid_ppn': '800000008', 'city': 'Alabaster', 'state_code': 'AL', 'country_code': 'US', 'latitude': '33.2442', 'longitude': '-86.8164'}, 'city_6': {'cityid_ppn': '800000009', 'city': 'Arab', 'state_code': 'AL', 'country_code': 'US', 'latitude': '34.3181', 'longitude': '-86.4958'}, 'city_7': {'cityid_ppn': '800000010', 'city': 'Bay Minette', 'state_code': 'AL', 'country_code': 'US', 'latitude': '30.8828', 'longitude': '-87.7731'}, 'city_8': {'cityid_ppn': '800000011', 'city': 'Boaz', 'state_code': 'AL', 'country_code': 'US', 'latitude': '34.2006', 'longitude': '-86.1664'}, 'city_9': {'cityid_ppn': '800000013', 'city': 'Brilliant', 'state_code': 'AL', 'country_code': 'US', 'latitude': '34.0253', 'longitude': '-87.7583'}, 'city_10': {'cityid_ppn': '800000014', 'city': 'Camden', 'state_code': 'AL', 'country_code': 'US', 'latitude': '31.9908', 'longitude': '-87.2906'}, 'city_11': {'cityid_ppn': '800000015', 'city': 'Cedar Bluff', 'state_code': 'AL', 'country_code': 'US', 'latitude': '34.22', 'longitude': '-85.6078'}, 'city_12': {'cityid_ppn': '800000016', 'city': 'C"
    },
    "{'resume_key': '_i5t8DtBOL_TQYM5NHcDzyUmfBM1K-Sv5pGYjh61rsBGUAudXn2ogQTfFuu4Qso-EutjeymKdGJFWWSlDXPtHvw'}": {
        "error": "",
        "response": "{'getSharedBOF2.Downloads.Car.Cities': {'results': {'status': 'Success', 'status_code': 100, 'resume_key': '_E49eQJV67g5I0EKmH7IDIgelfk3ZdeIlhULxTEVbe8T5s0M-Rfq0jEwdaSlkn0iJiP7ug7NX6c5aa5yyXsUgvg', 'cities': {'city_0': {'cityid_ppn': '800000120', 'city': 'Atherton', 'state_code': 'CA', 'country_code': 'US', 'latitude': '37.4614', 'longitude': '-122.197'}, 'city_1': {'cityid_ppn': '800000121', 'city': 'Atwater', 'state_code': 'CA', 'country_code': 'US', 'latitude': '37.3478', 'longitude': '-120.608'}, 'city_2': {'cityid_ppn': '800000122', 'city': 'Bloomington', 'state_code': 'CA', 'country_code': 'US', 'latitude': '34.0703', 'longitude': '-117.395'}, 'city_3': {'cityid_ppn': '800000123', 'city': 'Bonita', 'state_code': 'CA', 'country_code': 'US', 'latitude': '32.6578', 'longitude': '-117.029'}, 'city_4': {'cityid_ppn': '800000124', 'city': 'Borrego Springs', 'state_code': 'CA', 'country_code': 'US', 'latitude': '33.2558', 'longitude': '-116.374'}, 'city_5': {'cityid_ppn': '800000125', 'city': 'Boulder Creek', 'state_code': 'CA', 'country_code': 'US', 'latitude': '37.1261', 'longitude': '-122.121'}, 'city_6': {'cityid_ppn': '800000127', 'city': 'Cabazon', 'state_code': 'CA', 'country_code': 'US', 'latitude': '33.9175', 'longitude': '-116.786'}, 'city_7': {'cityid_ppn': '800000128', 'city': 'Canyon Country', 'state_code': 'CA', 'country_code': 'US', 'latitude': '34.4243', 'longitude': '-118.4386'}, 'city_8': {'cityid_ppn': '800000129', 'city': 'Capistrano Beach', 'state_code': '"
    },
    "{'limit': 50}": {
        "error": "",
        "response": "{'getSharedBOF2.Downloads.Car.Cities': {'results': {'status': 'Success', 'status_code': 100, 'resume_key': '_REedWRnsIIbF6KzJZ7Mx7uilCI9_DbEO9U61knOQjGm_X3vWuD2oPWkugrjNiY9HyFgxOC0Kmnw2_lN9JsEMiA', 'cities': {'city_0': {'cityid_ppn': '800000000', 'city': 'Cooper Landing', 'state_code': 'AK', 'country_code': 'US', 'latitude': '60.49', 'longitude': '-149.834'}, 'city_1': {'cityid_ppn': '800000002', 'city': 'Dillingham', 'state_code': 'AK', 'country_code': 'US', 'latitude': '59.0397', 'longitude': '-158.458'}, 'city_2': {'cityid_ppn': '800000005', 'city': 'Kasilof', 'state_code': 'AK', 'country_code': 'US', 'latitude': '60.3375', 'longitude': '-151.274'}, 'city_3': {'cityid_ppn': '800000006', 'city': 'Palmer', 'state_code': 'AK', 'country_code': 'US', 'latitude': '61.5997', 'longitude': '-149.113'}, 'city_4': {'cityid_ppn': '800000007', 'city': 'Abbeville', 'state_code': 'AL', 'country_code': 'US', 'latitude': '31.5717', 'longitude': '-85.2506'}, 'city_5': {'cityid_ppn': '800000008', 'city': 'Alabaster', 'state_code': 'AL', 'country_code': 'US', 'latitude': '33.2442', 'longitude': '-86.8164'}, 'city_6': {'cityid_ppn': '800000009', 'city': 'Arab', 'state_code': 'AL', 'country_code': 'US', 'latitude': '34.3181', 'longitude': '-86.4958'}, 'city_7': {'cityid_ppn': '800000010', 'city': 'Bay Minette', 'state_code': 'AL', 'country_code': 'US', 'latitude': '30.8828', 'longitude': '-87.7731'}, 'city_8': {'cityid_ppn': '800000011', 'city': 'Boaz', 'state_code': 'AL', 'country_code': 'US', 'latitude': '34.2006', 'longitude': '-86.1664'}, 'city_9': {'cityid_ppn': '800000013', 'city': 'Brilliant', 'state_code': 'AL', 'country_code': 'US', 'latitude': '34.0253', 'longitude': '-87.7583'}, 'city_10': {'cityid_ppn': '800000014', 'city': 'Camden', 'state_code': 'AL', 'country_code': 'US', 'latitude': '31.9908', 'longitude': '-87.2906'}, 'city_11': {'cityid_ppn': '800000015', 'city': 'Cedar Bluff', 'state_code': 'AL', 'country_code': 'US', 'latitude': '34.22', 'longitude': '-85.6078'}, 'city_12': {'cityid_ppn': '800000016', 'city': 'C"
    }
}