{
    "{'text': 'Berlin'}": {
        "error": "",
        "response": [
            {
                "name": "Berlin",
                "place_id": "berlin",
                "adm_area1": "Berlin",
                "adm_area2": null,
                "country": "Germany",
                "lat": "52.52437N",
                "lon": "13.41053E",
                "timezone": "Europe/Berlin",
                "type": "settlement"
            },
            {
                "name": "Berlin",
                "place_id": "berlin-5083330",
                "adm_area1": "New Hampshire",
                "adm_area2": "Coos",
                "country": "United States of America",
                "lat": "44.46867N",
                "lon": "71.18508W",
                "timezone": "America/New_York",
                "type": "settlement"
            },
            {
                "name": "Brunswick",
                "place_id": "brunswick-4349706",
                "adm_area1": "Maryland",
                "adm_area2": "Frederick",
                "country": "United States of America",
                "lat": "39.31427N",
                "lon": "77.62777W",
                "timezone": "America/New_York",
                "type": "settlement"
            },
            {
                "name": "Berlin",
                "place_id": "berlin-5245497",
                "adm_area1": "Wisconsin",
                "adm_area2": "Green Lake",
                "country": "United States of America",
                "lat": "43.96804N",
                "lon": "88.94345W",
                "timezone": "America/Chicago",
                "type": "settlement"
            },
            {
                "name": "North Canton",
                "place_id": "north-canton",
                "adm_area1": "Ohio",
                "adm_area2": "Stark",
                "country": "United States of America",
                "lat": "40.87589N",
                "lon": "81.40234W",
                "timezone": "America/New_York",
                "type": "settlement"
            },
            {
                "name": "Berl\u00edn",
                "place_id": "berlin-3587266",
                "adm_area1": "Usulut\u00e1n",
                "adm_area2": null,
                "country": "Republic of El Salvador",
                "lat": "13.5N",
                "lon": "88.53333W",
                "timezone": "America/El_Salvador",
                "type": "settlement"
            },
            {
                "name": "Berlin",
                "place_id": "berlin-4348460",
                "adm_area1": "Maryland",
                "adm_area2": "Worcester",
                "country": "United States of America",
                "lat": "38.32262N",
                "lon": "75.21769W",
                "timezone": "America/New_York",
                "type": "settlement"
            },
            {
                "name": "Berlin",
                "place_id": "berlin-4500771",
                "adm_area1": "New Jersey",
                "adm_area2": "Camden",
                "country": "United States of America",
                "lat": "39.79123N",
                "lon": "74.92905W",
                "timezone": "America/New_York",
                "type": "settlement"
            },
            {
                "name": "Berlin",
                "place_id": "berlin-6547539",
                "adm_area1": "Berlin",
                "adm_area2": null,
                "country": "Germany",
                "lat": "52.5233N",
                "lon": "13.41377E",
                "timezone": "Europe/Berlin",
                "type": "administrative_area"
            },
            {
                "name": "Land Berlin",
                "place_id": "land-berlin",
                "adm_area1": "Berlin",
                "adm_area2": null,
                "country": "Germany",
                "lat": "52.5N",
                "lon": "13.41667E",
                "timezone": "Europe/Berlin",
                "type": "administrative_area"
            }
        ]
    },
    "{'text': 'London'}": {
        "error": "",
        "response": [
            {
                "name": "London",
                "place_id": "london",
                "adm_area1": "England",
                "adm_area2": "Greater London",
                "country": "United Kingdom",
                "lat": "51.50853N",
                "lon": "0.12574W",
                "timezone": "Europe/London",
                "type": "settlement"
            },
            {
                "name": "London",
                "place_id": "london-6058560",
                "adm_area1": "Ontario",
                "adm_area2": null,
                "country": "Canada",
                "lat": "42.98339N",
                "lon": "81.23304W",
                "timezone": "America/Toronto",
                "type": "settlement"
            },
            {
                "name": "London",
                "place_id": "london-4298960",
                "adm_area1": "Kentucky",
                "adm_area2": "Laurel",
                "country": "United States of America",
                "lat": "37.12898N",
                "lon": "84.08326W",
                "timezone": "America/New_York",
                "type": "settlement"
            },
            {
                "name": "City of London",
                "place_id": "city-of-london",
                "adm_area1": "England",
                "adm_area2": "Greater London",
                "country": "United Kingdom",
                "lat": "51.51279N",
                "lon": "0.09184W",
                "timezone": "Europe/London",
                "type": "settlement"
            },
            {
                "name": "London",
                "place_id": "london-4517009",
                "adm_area1": "Ohio",
                "adm_area2": "Madison",
                "country": "United States of America",
                "lat": "39.88645N",
                "lon": "83.44825W",
                "timezone": "America/New_York",
                "type": "settlement"
            },
            {
                "name": "London",
                "place_id": "london-5367815",
                "adm_area1": "California",
                "adm_area2": "Tulare",
                "country": "United States of America",
                "lat": "36.47606N",
                "lon": "119.44318W",
                "timezone": "America/Los_Angeles",
                "type": "settlement"
            },
            {
                "name": "London Village",
                "place_id": "london-village",
                "adm_area1": "Line Islands",
                "adm_area2": "Kiritimati",
                "country": "Kiribati",
                "lat": "1.98487N",
                "lon": "157.47502W",
                "timezone": "Pacific/Kiritimati",
                "type": "settlement"
            },
            {
                "name": "London",
                "place_id": "london-4119617",
                "adm_area1": "Arkansas",
                "adm_area2": "Pope",
                "country": "United States of America",
                "lat": "35.32897N",
                "lon": "93.25296W",
                "timezone": "America/Chicago",
                "type": "settlement"
            },
            {
                "name": "London",
                "place_id": "london-4707414",
                "adm_area1": "Texas",
                "adm_area2": "Kimble",
                "country": "United States of America",
                "lat": "30.67685N",
                "lon": "99.57645W",
                "timezone": "America/Chicago",
                "type": "settlement"
            },
            {
                "name": "City of London",
                "place_id": "city-of-london-2643744",
                "adm_area1": "England",
                "adm_area2": "Greater London",
                "country": "United Kingdom",
                "lat": "51.51334N",
                "lon": "0.08901W",
                "timezone": "Europe/London",
                "type": "administrative_area"
            }
        ]
    },
    "{'text': 'Paris'}": {
        "error": "",
        "response": [
            {
                "name": "Paris",
                "place_id": "paris",
                "adm_area1": "\u00cele-de-France Region",
                "adm_area2": "Paris",
                "country": "France",
                "lat": "48.85341N",
                "lon": "2.3488E",
                "timezone": "Europe/Paris",
                "type": "settlement"
            },
            {
                "name": "Paris",
                "place_id": "paris-4717560",
                "adm_area1": "Texas",
                "adm_area2": "Lamar",
                "country": "United States of America",
                "lat": "33.66094N",
                "lon": "95.55551W",
                "timezone": "America/Chicago",
                "type": "settlement"
            },
            {
                "name": "Paris",
                "place_id": "paris-4647963",
                "adm_area1": "Tennessee",
                "adm_area2": "Henry",
                "country": "United States of America",
                "lat": "36.302N",
                "lon": "88.32671W",
                "timezone": "America/Chicago",
                "type": "settlement"
            },
            {
                "name": "Paris",
                "place_id": "paris-4303602",
                "adm_area1": "Kentucky",
                "adm_area2": "Bourbon",
                "country": "United States of America",
                "lat": "38.2098N",
                "lon": "84.25299W",
                "timezone": "America/New_York",
                "type": "settlement"
            },
            {
                "name": "Paris",
                "place_id": "paris-4246659",
                "adm_area1": "Illinois",
                "adm_area2": "Edgar",
                "country": "United States of America",
                "lat": "39.61115N",
                "lon": "87.69614W",
                "timezone": "America/Chicago",
                "type": "settlement"
            },
            {
                "name": "Parys",
                "place_id": "parys",
                "adm_area1": "Orange Free State",
                "adm_area2": "Fezile Dabi District Municipality",
                "country": "South Africa",
                "lat": "26.9033S",
                "lon": "27.45727E",
                "timezone": "Africa/Johannesburg",
                "type": "settlement"
            },
            {
                "name": "Paris",
                "place_id": "paris-6942553",
                "adm_area1": "Ontario",
                "adm_area2": null,
                "country": "Canada",
                "lat": "43.2N",
                "lon": "80.38333W",
                "timezone": "America/Toronto",
                "type": "settlement"
            },
            {
                "name": "Paris",
                "place_id": "paris-2988506",
                "adm_area1": "\u00cele-de-France Region",
                "adm_area2": "Paris",
                "country": "France",
                "lat": "48.85339N",
                "lon": "2.34864E",
                "timezone": "Europe/Paris",
                "type": "administrative_area"
            },
            {
                "name": "Paris",
                "place_id": "paris-2968815",
                "adm_area1": "\u00cele-de-France Region",
                "adm_area2": "Paris",
                "country": "France",
                "lat": "48.8534N",
                "lon": "2.3486E",
                "timezone": "Europe/Paris",
                "type": "administrative_area"
            },
            {
                "name": "Paris",
                "place_id": "paris-6455259",
                "adm_area1": "\u00cele-de-France Region",
                "adm_area2": "Paris",
                "country": "France",
                "lat": "48.86N",
                "lon": "2.34444E",
                "timezone": "Europe/Paris",
                "type": "administrative_area"
            }
        ]
    },
    "{'text': 'coastal city'}": {
        "error": "",
        "response": [
            {
                "name": "Mad\u012bnat al Malik Fahd as S\u0101\u1e29il\u012byah",
                "place_id": "madinat-al-malik-fahd-as-sahiliyah-412762",
                "adm_area1": "Mecca Region",
                "adm_area2": null,
                "country": "Kingdom of Saudi Arabia",
                "lat": "21.50387N",
                "lon": "39.17323E",
                "timezone": "Asia/Riyadh",
                "type": "settlement"
            }
        ]
    },
    "{'text': 'New York City'}": {
        "error": "",
        "response": [
            {
                "name": "New York",
                "place_id": "new-york-city",
                "adm_area1": "New York",
                "adm_area2": null,
                "country": "United States of America",
                "lat": "40.71427N",
                "lon": "74.00597W",
                "timezone": "America/New_York",
                "type": "settlement"
            },
            {
                "name": "East New York",
                "place_id": "east-new-york",
                "adm_area1": "New York",
                "adm_area2": "Kings",
                "country": "United States of America",
                "lat": "40.66677N",
                "lon": "73.88236W",
                "timezone": "America/New_York",
                "type": "settlement"
            },
            {
                "name": "Pittsburg",
                "place_id": "pittsburg",
                "adm_area1": "California",
                "adm_area2": "Contra Costa",
                "country": "United States of America",
                "lat": "38.02798N",
                "lon": "121.88468W",
                "timezone": "America/Los_Angeles",
                "type": "settlement"
            },
            {
                "name": "City of New York",
                "place_id": "city-of-new-york",
                "adm_area1": "New York",
                "adm_area2": "Kings",
                "country": "United States of America",
                "lat": "40.66393N",
                "lon": "73.93827W",
                "timezone": "America/New_York",
                "type": "administrative_area"
            },
            {
                "name": "City of Buffalo",
                "place_id": "city-of-buffalo",
                "adm_area1": "New York",
                "adm_area2": "Erie",
                "country": "United States of America",
                "lat": "42.89225N",
                "lon": "78.85941W",
                "timezone": "America/New_York",
                "type": "administrative_area"
            },
            {
                "name": "City of Rochester",
                "place_id": "city-of-rochester",
                "adm_area1": "New York",
                "adm_area2": "Monroe",
                "country": "United States of America",
                "lat": "43.16881N",
                "lon": "77.61596W",
                "timezone": "America/New_York",
                "type": "administrative_area"
            },
            {
                "name": "City of Yonkers",
                "place_id": "city-of-yonkers",
                "adm_area1": "New York",
                "adm_area2": "Westchester",
                "country": "United States of America",
                "lat": "40.9466N",
                "lon": "73.86738W",
                "timezone": "America/New_York",
                "type": "administrative_area"
            },
            {
                "name": "City of Syracuse",
                "place_id": "city-of-syracuse",
                "adm_area1": "New York",
                "adm_area2": "Onondaga",
                "country": "United States of America",
                "lat": "43.04092N",
                "lon": "76.14377W",
                "timezone": "America/New_York",
                "type": "administrative_area"
            },
            {
                "name": "City of Albany",
                "place_id": "city-of-albany",
                "adm_area1": "New York",
                "adm_area2": "Albany",
                "country": "United States of America",
                "lat": "42.6664N",
                "lon": "73.79868W",
                "timezone": "America/New_York",
                "type": "administrative_area"
            },
            {
                "name": "City of New Rochelle",
                "place_id": "city-of-new-rochelle",
                "adm_area1": "New York",
                "adm_area2": "Westchester",
                "country": "United States of America",
                "lat": "40.92308N",
                "lon": "73.77995W",
                "timezone": "America/New_York",
                "type": "administrative_area"
            }
        ]
    },
    "{'text': 'New York, NY'}": {
        "error": "",
        "response": [
            {
                "name": "New York",
                "place_id": "new-york-city",
                "adm_area1": "New York",
                "adm_area2": null,
                "country": "United States of America",
                "lat": "40.71427N",
                "lon": "74.00597W",
                "timezone": "America/New_York",
                "type": "settlement"
            },
            {
                "name": "New York",
                "place_id": "new-york-5128638",
                "adm_area1": "New York",
                "adm_area2": null,
                "country": "United States of America",
                "lat": "43.00035N",
                "lon": "75.4999W",
                "timezone": "America/New_York",
                "type": "administrative_area"
            }
        ]
    },
    "{'text': 'New York'}": {
        "error": "",
        "response": [
            {
                "name": "New York",
                "place_id": "new-york-city",
                "adm_area1": "New York",
                "adm_area2": null,
                "country": "United States of America",
                "lat": "40.71427N",
                "lon": "74.00597W",
                "timezone": "America/New_York",
                "type": "settlement"
            },
            {
                "name": "York",
                "place_id": "york-5082331",
                "adm_area1": "Nebraska",
                "adm_area2": "York",
                "country": "United States of America",
                "lat": "40.86807N",
                "lon": "97.592W",
                "timezone": "America/Chicago",
                "type": "settlement"
            },
            {
                "name": "Clinton",
                "place_id": "clinton-5248969",
                "adm_area1": "Wisconsin",
                "adm_area2": "Rock",
                "country": "United States of America",
                "lat": "42.55779N",
                "lon": "88.86511W",
                "timezone": "America/Chicago",
                "type": "settlement"
            },
            {
                "name": "Florence",
                "place_id": "florence-4257559",
                "adm_area1": "Indiana",
                "adm_area2": "Switzerland",
                "country": "United States of America",
                "lat": "38.78423N",
                "lon": "84.92439W",
                "timezone": "America/Indiana/Vevay",
                "type": "settlement"
            },
            {
                "name": "York",
                "place_id": "york-5687495",
                "adm_area1": "Montana",
                "adm_area2": "Lewis and Clark County",
                "country": "United States of America",
                "lat": "46.7216N",
                "lon": "111.75193W",
                "timezone": "America/Denver",
                "type": "settlement"
            },
            {
                "name": "New York",
                "place_id": "new-york-3489275",
                "adm_area1": "Saint Catherine",
                "adm_area2": "Ewarton",
                "country": "Jamaica",
                "lat": "18.11667N",
                "lon": "77.13333W",
                "timezone": "America/Jamaica",
                "type": "settlement"
            },
            {
                "name": "New York",
                "place_id": "new-york-4302486",
                "adm_area1": "Kentucky",
                "adm_area2": "Ballard",
                "country": "United States of America",
                "lat": "36.98894N",
                "lon": "88.95256W",
                "timezone": "America/Chicago",
                "type": "settlement"
            },
            {
                "name": "New York",
                "place_id": "new-york-4165941",
                "adm_area1": "Florida",
                "adm_area2": "Santa Rosa",
                "country": "United States of America",
                "lat": "30.83852N",
                "lon": "87.2008W",
                "timezone": "America/Chicago",
                "type": "settlement"
            },
            {
                "name": "New York",
                "place_id": "new-york-5128638",
                "adm_area1": "New York",
                "adm_area2": null,
                "country": "United States of America",
                "lat": "43.00035N",
                "lon": "75.4999W",
                "timezone": "America/New_York",
                "type": "administrative_area"
            },
            {
                "name": "New York County",
                "place_id": "new-york-county",
                "adm_area1": "New York",
                "adm_area2": "New York County",
                "country": "United States of America",
                "lat": "40.77427N",
                "lon": "73.96981W",
                "timezone": "America/New_York",
                "type": "administrative_area"
            }
        ]
    },
    "{'text': 'tourist attractions in New York City'}": {
        "error": "",
        "response": []
    },
    "{'text': 'coastal city', 'language': 'en'}": {
        "error": "",
        "response": [
            {
                "name": "Mad\u012bnat al Malik Fahd as S\u0101\u1e29il\u012byah",
                "place_id": "madinat-al-malik-fahd-as-sahiliyah-412762",
                "adm_area1": "Mecca Region",
                "adm_area2": null,
                "country": "Kingdom of Saudi Arabia",
                "lat": "21.50387N",
                "lon": "39.17323E",
                "timezone": "Asia/Riyadh",
                "type": "settlement"
            }
        ]
    },
    "{'text': '[name of the coastal city]'}": {
        "error": "",
        "response": []
    },
    "{'text': 'coastal city weather'}": {
        "error": "",
        "response": []
    },
    "{'text': 'popular coastal city'}": {
        "error": "",
        "response": []
    },
    "{'text': 'beach'}": {
        "error": "",
        "response": [
            {
                "name": "Beach",
                "place_id": "beach",
                "adm_area1": "North Dakota",
                "adm_area2": "Golden Valley",
                "country": "United States of America",
                "lat": "46.91807N",
                "lon": "104.00437W",
                "timezone": "America/Denver",
                "type": "settlement"
            },
            {
                "name": "Beach",
                "place_id": "beach-2595055",
                "adm_area1": "South-West Region",
                "adm_area2": null,
                "country": "Republic of Cameroon",
                "lat": "4.4374N",
                "lon": "9.4937E",
                "timezone": "Africa/Douala",
                "type": "settlement"
            },
            {
                "name": "Beach",
                "place_id": "beach-6915337",
                "adm_area1": "South-West Region",
                "adm_area2": null,
                "country": "Republic of Cameroon",
                "lat": "4.6595N",
                "lon": "8.956E",
                "timezone": "Africa/Douala",
                "type": "settlement"
            },
            {
                "name": "Beach",
                "place_id": "beach-2656127",
                "adm_area1": "Scotland",
                "adm_area2": "Argyll and Bute",
                "country": "United Kingdom",
                "lat": "56.33333N",
                "lon": "6.11667W",
                "timezone": "Europe/London",
                "type": "settlement"
            },
            {
                "name": "Beach",
                "place_id": "beach-8199225",
                "adm_area1": "England",
                "adm_area2": "South Gloucestershire",
                "country": "United Kingdom",
                "lat": "51.43605N",
                "lon": "2.42849W",
                "timezone": "Europe/London",
                "type": "settlement"
            },
            {
                "name": "Beach",
                "place_id": "beach-4181421",
                "adm_area1": "Georgia",
                "adm_area2": "Ware",
                "country": "United States of America",
                "lat": "31.43993N",
                "lon": "82.50375W",
                "timezone": "America/New_York",
                "type": "settlement"
            },
            {
                "name": "Beach",
                "place_id": "beach-4672756",
                "adm_area1": "Texas",
                "adm_area2": "Montgomery",
                "country": "United States of America",
                "lat": "30.31993N",
                "lon": "95.42133W",
                "timezone": "America/Chicago",
                "type": "settlement"
            },
            {
                "name": "Beach",
                "place_id": "beach-5786514",
                "adm_area1": "Washington",
                "adm_area2": "Whatcom",
                "country": "United States of America",
                "lat": "48.71594N",
                "lon": "122.68379W",
                "timezone": "America/Los_Angeles",
                "type": "settlement"
            },
            {
                "name": "Beach",
                "place_id": "beach-4417259",
                "adm_area1": "Mississippi",
                "adm_area2": "Scott",
                "country": "United States of America",
                "lat": "32.49653N",
                "lon": "89.65507W",
                "timezone": "America/Chicago",
                "type": "settlement"
            },
            {
                "name": "Beach",
                "place_id": "beach-4556430",
                "adm_area1": "Pennsylvania",
                "adm_area2": "Lancaster",
                "country": "United States of America",
                "lat": "39.79677N",
                "lon": "76.29079W",
                "timezone": "America/New_York",
                "type": "island"
            }
        ]
    },
    "{'text': 'New York City attractions'}": {
        "error": "",
        "response": []
    },
    "{'text': 'top attractions in New York City'}": {
        "error": "",
        "response": []
    },
    "{'text': 'sights in New York City'}": {
        "error": "",
        "response": []
    },
    "{'text': 'tourist attractions in New York City', 'language': 'en'}": {
        "error": "",
        "response": []
    },
    "{'text': 'landmarks in New York City', 'language': 'en'}": {
        "error": "",
        "response": []
    },
    "{'text': 'Los Angeles'}": {
        "error": "",
        "response": [
            {
                "name": "Los Angeles",
                "place_id": "los-angeles",
                "adm_area1": "California",
                "adm_area2": "Los Angeles",
                "country": "United States of America",
                "lat": "34.05223N",
                "lon": "118.24368W",
                "timezone": "America/Los_Angeles",
                "type": "settlement"
            },
            {
                "name": "Los \u00c1ngeles",
                "place_id": "los-angeles-3882428",
                "adm_area1": "Biob\u00edo",
                "adm_area2": "Provincia de Biob\u00edo",
                "country": "Republic of Chile",
                "lat": "37.46973S",
                "lon": "72.35366W",
                "timezone": "America/Santiago",
                "type": "settlement"
            },
            {
                "name": "Los Angeles",
                "place_id": "los-angeles-3998147",
                "adm_area1": "Sinaloa",
                "adm_area2": "Guasave",
                "country": "Mexico",
                "lat": "25.60289N",
                "lon": "108.48095W",
                "timezone": "America/Mazatlan",
                "type": "settlement"
            },
            {
                "name": "Los Angeles",
                "place_id": "los-angeles-1705545",
                "adm_area1": "Caraga",
                "adm_area2": "Province of Agusan del Norte",
                "country": "Philippines",
                "lat": "9.0125N",
                "lon": "125.60806E",
                "timezone": "Asia/Manila",
                "type": "settlement"
            },
            {
                "name": "Los \u00c1ngeles",
                "place_id": "los-angeles-8858843",
                "adm_area1": "Guanajuato",
                "adm_area2": "Villagr\u00e1n",
                "country": "Mexico",
                "lat": "20.55361N",
                "lon": "100.94167W",
                "timezone": "America/Mexico_City",
                "type": "settlement"
            },
            {
                "name": "Los Angeles",
                "place_id": "los-angeles-3998148",
                "adm_area1": "Durango",
                "adm_area2": "Lerdo",
                "country": "Mexico",
                "lat": "25.52206N",
                "lon": "103.56757W",
                "timezone": "America/Monterrey",
                "type": "settlement"
            },
            {
                "name": "Los \u00c1ngeles",
                "place_id": "los-angeles-3801497",
                "adm_area1": "Oaxaca",
                "adm_area2": "Mat\u00edas Romero Avenda\u00f1o",
                "country": "Mexico",
                "lat": "17.39485N",
                "lon": "95.1654W",
                "timezone": "America/Mexico_City",
                "type": "settlement"
            },
            {
                "name": "Los \u00c1ngeles",
                "place_id": "los-angeles-3978270",
                "adm_area1": "Durango",
                "adm_area2": "Poanas",
                "country": "Mexico",
                "lat": "23.9433N",
                "lon": "104.13116W",
                "timezone": "America/Monterrey",
                "type": "settlement"
            },
            {
                "name": "Los \u00c1ngeles",
                "place_id": "los-angeles-3816703",
                "adm_area1": "Chiapas",
                "adm_area2": "Villaflores",
                "country": "Mexico",
                "lat": "16.26917N",
                "lon": "93.63861W",
                "timezone": "America/Mexico_City",
                "type": "settlement"
            },
            {
                "name": "Los Angeles",
                "place_id": "los-angeles-county",
                "adm_area1": "California",
                "adm_area2": "Los Angeles",
                "country": "United States of America",
                "lat": "34.19801N",
                "lon": "118.26102W",
                "timezone": "America/Los_Angeles",
                "type": "administrative_area"
            }
        ]
    },
    "{'text': 'Chicago'}": {
        "error": "",
        "response": [
            {
                "name": "Chicago",
                "place_id": "chicago",
                "adm_area1": "Illinois",
                "adm_area2": "Cook",
                "country": "United States of America",
                "lat": "41.85003N",
                "lon": "87.65005W",
                "timezone": "America/Chicago",
                "type": "settlement"
            },
            {
                "name": "Craigmont",
                "place_id": "craigmont-5590063",
                "adm_area1": "Idaho",
                "adm_area2": "Lewis",
                "country": "United States of America",
                "lat": "46.24128N",
                "lon": "116.46709W",
                "timezone": "America/Los_Angeles",
                "type": "settlement"
            },
            {
                "name": "Willard",
                "place_id": "willard-5176830",
                "adm_area1": "Ohio",
                "adm_area2": "Huron",
                "country": "United States of America",
                "lat": "41.05311N",
                "lon": "82.72629W",
                "timezone": "America/New_York",
                "type": "settlement"
            },
            {
                "name": "Chicago",
                "place_id": "chicago-8922857",
                "adm_area1": "Jalisco",
                "adm_area2": "Mezquitic",
                "country": "Mexico",
                "lat": "22.33944N",
                "lon": "104.15972W",
                "timezone": "America/Mexico_City",
                "type": "settlement"
            },
            {
                "name": "Chicago",
                "place_id": "chicago-3598676",
                "adm_area1": "Suchitepequez Department",
                "adm_area2": null,
                "country": "Republic of Guatemala",
                "lat": "14.08718N",
                "lon": "91.60872W",
                "timezone": "America/Guatemala",
                "type": "settlement"
            },
            {
                "name": "Chicago",
                "place_id": "chicago-7778707",
                "adm_area1": "La Libertad",
                "adm_area2": "Provincia de Trujillo",
                "country": "Republic of Peru",
                "lat": "8.11544S",
                "lon": "79.02007W",
                "timezone": "America/Lima",
                "type": "settlement"
            },
            {
                "name": "Chicago",
                "place_id": "chicago-1717427",
                "adm_area1": "Mimaropa",
                "adm_area2": "Oriental Mindoro",
                "country": "Philippines",
                "lat": "13.396N",
                "lon": "121.0984E",
                "timezone": "Asia/Manila",
                "type": "settlement"
            },
            {
                "name": "Chicago",
                "place_id": "chicago-11775475",
                "adm_area1": "Matanzas",
                "adm_area2": null,
                "country": "Republic of Cuba",
                "lat": "22.95295N",
                "lon": "80.81946W",
                "timezone": "America/Havana",
                "type": "settlement"
            },
            {
                "name": "Saint Francis",
                "place_id": "saint-francis-4307142",
                "adm_area1": "Kentucky",
                "adm_area2": "Marion",
                "country": "United States of America",
                "lat": "37.62645N",
                "lon": "85.42774W",
                "timezone": "America/New_York",
                "type": "settlement"
            },
            {
                "name": "City of Chicago",
                "place_id": "city-of-chicago",
                "adm_area1": "Illinois",
                "adm_area2": "Cook",
                "country": "United States of America",
                "lat": "41.83691N",
                "lon": "87.68475W",
                "timezone": "America/Chicago",
                "type": "administrative_area"
            }
        ]
    },
    "{'text': 'New York John F. Kennedy International Airport'}": {
        "error": "",
        "response": [
            {
                "name": "John F. Kennedy International Airport",
                "place_id": "john-f-kennedy-international-airport",
                "adm_area1": "New York",
                "adm_area2": "Queens County",
                "country": "United States of America",
                "lat": "40.63983N",
                "lon": "73.77874W",
                "timezone": "America/New_York",
                "type": "airport"
            }
        ]
    },
    "{'text': 'Los Angeles airport'}": {
        "error": "",
        "response": [
            {
                "name": "Burbank Bob Hope Airport",
                "place_id": "burbank-bob-hope-airport",
                "adm_area1": "California",
                "adm_area2": "Los Angeles",
                "country": "United States of America",
                "lat": "34.20056N",
                "lon": "118.35925W",
                "timezone": "America/Los_Angeles",
                "type": "airport"
            },
            {
                "name": "Los Angeles International Airport",
                "place_id": "los-angeles-international-airport",
                "adm_area1": "California",
                "adm_area2": "Los Angeles",
                "country": "United States of America",
                "lat": "33.94251N",
                "lon": "118.40897W",
                "timezone": "America/Los_Angeles",
                "type": "airport"
            },
            {
                "name": "Long Beach Airport",
                "place_id": "long-beach-airport",
                "adm_area1": "California",
                "adm_area2": "Los Angeles",
                "country": "United States of America",
                "lat": "33.81752N",
                "lon": "118.15229W",
                "timezone": "America/Los_Angeles",
                "type": "airport"
            },
            {
                "name": "Bah\u00eda de los \u00c1ngeles Airport",
                "place_id": "bahia-de-los-angeles-airport",
                "adm_area1": "Free and Sovereign State of Baja California",
                "adm_area2": "Ensenada Municipality",
                "country": "Mexico",
                "lat": "28.97631N",
                "lon": "113.56018W",
                "timezone": "America/Tijuana",
                "type": "airfield"
            },
            {
                "name": "Pomona Airport (historical)",
                "place_id": "pomona-airport-historical",
                "adm_area1": "California",
                "adm_area2": "Los Angeles",
                "country": "United States of America",
                "lat": "34.02667N",
                "lon": "117.74778W",
                "timezone": "America/Los_Angeles",
                "type": "airfield"
            },
            {
                "name": "Kellys Airport (historical)",
                "place_id": "kellys-airport-historical",
                "adm_area1": "California",
                "adm_area2": "Los Angeles",
                "country": "United States of America",
                "lat": "33.92224N",
                "lon": "118.36369W",
                "timezone": "America/Los_Angeles",
                "type": "airfield"
            },
            {
                "name": "Central Airport (historical)",
                "place_id": "central-airport-historical",
                "adm_area1": "California",
                "adm_area2": "Los Angeles",
                "country": "United States of America",
                "lat": "33.90806N",
                "lon": "118.25778W",
                "timezone": "America/Los_Angeles",
                "type": "airfield"
            },
            {
                "name": "San Fernando Airport (historical)",
                "place_id": "san-fernando-airport-historical",
                "adm_area1": "California",
                "adm_area2": "Los Angeles",
                "country": "United States of America",
                "lat": "34.29111N",
                "lon": "118.42036W",
                "timezone": "America/Los_Angeles",
                "type": "airfield"
            },
            {
                "name": "Hughes Airport (historical)",
                "place_id": "hughes-airport-historical-5358517",
                "adm_area1": "California",
                "adm_area2": "Los Angeles",
                "country": "United States of America",
                "lat": "33.97722N",
                "lon": "118.41333W",
                "timezone": "America/Los_Angeles",
                "type": "airfield"
            },
            {
                "name": "Palmdale Airport",
                "place_id": "palmdale-united-states-air-force-plant-42-airport",
                "adm_area1": "California",
                "adm_area2": "Los Angeles",
                "country": "United States of America",
                "lat": "34.62282N",
                "lon": "118.09155W",
                "timezone": "America/Los_Angeles",
                "type": "airport"
            }
        ]
    },
    "{'text': \"Chicago O'Hare International Airport\"}": {
        "error": "",
        "response": [
            {
                "name": "Chicago O'Hare International Airport",
                "place_id": "chicago-ohare-international-airport",
                "adm_area1": "Illinois",
                "adm_area2": "Cook",
                "country": "United States of America",
                "lat": "41.97959N",
                "lon": "87.90446W",
                "timezone": "America/Chicago",
                "type": "airport"
            }
        ]
    },
    "{'text': '35.6895,139.6917'}": {
        "error": "",
        "response": []
    },
    "{'text': 'Tokyo'}": {
        "error": "",
        "response": [
            {
                "name": "Tokyo",
                "place_id": "tokyo",
                "adm_area1": "Tokyo",
                "adm_area2": null,
                "country": "Japan",
                "lat": "35.6895N",
                "lon": "139.69171E",
                "timezone": "Asia/Tokyo",
                "type": "settlement"
            },
            {
                "name": "Tokyo",
                "place_id": "tokyo-7945384",
                "adm_area1": "Karnali Pradesh",
                "adm_area2": "Dolpa",
                "country": "Federal Democratic Republic of Nepal",
                "lat": "29.16998N",
                "lon": "83.16319E",
                "timezone": "Asia/Kathmandu",
                "type": "settlement"
            },
            {
                "name": "Tokyo",
                "place_id": "tokyo-2085290",
                "adm_area1": "Central Province",
                "adm_area2": null,
                "country": "Papua New Guinea",
                "lat": "8.4S",
                "lon": "147.15E",
                "timezone": "Pacific/Port_Moresby",
                "type": "settlement"
            },
            {
                "name": "Tokyo",
                "place_id": "tokyo-prefecture",
                "adm_area1": "Tokyo",
                "adm_area2": null,
                "country": "Japan",
                "lat": "35.6895N",
                "lon": "139.69171E",
                "timezone": "Asia/Tokyo",
                "type": "administrative_area"
            },
            {
                "name": "Hachi\u014dji",
                "place_id": "hachioji",
                "adm_area1": "Tokyo",
                "adm_area2": "Hachi\u014dji",
                "country": "Japan",
                "lat": "35.65583N",
                "lon": "139.32389E",
                "timezone": "Asia/Tokyo",
                "type": "settlement"
            },
            {
                "name": "Machida",
                "place_id": "machida",
                "adm_area1": "Tokyo",
                "adm_area2": "Machida-shi",
                "country": "Japan",
                "lat": "35.54028N",
                "lon": "139.45083E",
                "timezone": "Asia/Tokyo",
                "type": "settlement"
            },
            {
                "name": "Hachi\u014dji",
                "place_id": "hachiojishi",
                "adm_area1": "Tokyo",
                "adm_area2": "Hachi\u014dji",
                "country": "Japan",
                "lat": "35.65983N",
                "lon": "139.28766E",
                "timezone": "Asia/Tokyo",
                "type": "administrative_area"
            },
            {
                "name": "Machida-shi",
                "place_id": "machidashi",
                "adm_area1": "Tokyo",
                "adm_area2": "Machida-shi",
                "country": "Japan",
                "lat": "35.57626N",
                "lon": "139.42998E",
                "timezone": "Asia/Tokyo",
                "type": "administrative_area"
            },
            {
                "name": "Shinagawa",
                "place_id": "shinagawaku",
                "adm_area1": "Tokyo",
                "adm_area2": "Shinagawa",
                "country": "Japan",
                "lat": "35.60902N",
                "lon": "139.73017E",
                "timezone": "Asia/Tokyo",
                "type": "administrative_area"
            },
            {
                "name": "Shinjuku",
                "place_id": "shinjukuku",
                "adm_area1": "Tokyo",
                "adm_area2": "Shinjuku",
                "country": "Japan",
                "lat": "35.69384N",
                "lon": "139.70355E",
                "timezone": "Asia/Tokyo",
                "type": "administrative_area"
            }
        ]
    },
    "{'text': '35.6895\u00b0 N, 139.6917\u00b0 E'}": {
        "error": "",
        "response": []
    },
    "{'text': 'Tokyo, Japan'}": {
        "error": "",
        "response": [
            {
                "name": "Tokyo",
                "place_id": "tokyo",
                "adm_area1": "Tokyo",
                "adm_area2": null,
                "country": "Japan",
                "lat": "35.6895N",
                "lon": "139.69171E",
                "timezone": "Asia/Tokyo",
                "type": "settlement"
            },
            {
                "name": "Hachi\u014dji",
                "place_id": "hachioji",
                "adm_area1": "Tokyo",
                "adm_area2": "Hachi\u014dji",
                "country": "Japan",
                "lat": "35.65583N",
                "lon": "139.32389E",
                "timezone": "Asia/Tokyo",
                "type": "settlement"
            },
            {
                "name": "Machida",
                "place_id": "machida",
                "adm_area1": "Tokyo",
                "adm_area2": "Machida-shi",
                "country": "Japan",
                "lat": "35.54028N",
                "lon": "139.45083E",
                "timezone": "Asia/Tokyo",
                "type": "settlement"
            },
            {
                "name": "Tokyo",
                "place_id": "tokyo-prefecture",
                "adm_area1": "Tokyo",
                "adm_area2": null,
                "country": "Japan",
                "lat": "35.6895N",
                "lon": "139.69171E",
                "timezone": "Asia/Tokyo",
                "type": "administrative_area"
            },
            {
                "name": "Hachi\u014dji",
                "place_id": "hachiojishi",
                "adm_area1": "Tokyo",
                "adm_area2": "Hachi\u014dji",
                "country": "Japan",
                "lat": "35.65983N",
                "lon": "139.28766E",
                "timezone": "Asia/Tokyo",
                "type": "administrative_area"
            },
            {
                "name": "Machida-shi",
                "place_id": "machidashi",
                "adm_area1": "Tokyo",
                "adm_area2": "Machida-shi",
                "country": "Japan",
                "lat": "35.57626N",
                "lon": "139.42998E",
                "timezone": "Asia/Tokyo",
                "type": "administrative_area"
            },
            {
                "name": "Shinagawa",
                "place_id": "shinagawaku",
                "adm_area1": "Tokyo",
                "adm_area2": "Shinagawa",
                "country": "Japan",
                "lat": "35.60902N",
                "lon": "139.73017E",
                "timezone": "Asia/Tokyo",
                "type": "administrative_area"
            },
            {
                "name": "Shinjuku",
                "place_id": "shinjukuku",
                "adm_area1": "Tokyo",
                "adm_area2": "Shinjuku",
                "country": "Japan",
                "lat": "35.69384N",
                "lon": "139.70355E",
                "timezone": "Asia/Tokyo",
                "type": "administrative_area"
            },
            {
                "name": "Fuchu",
                "place_id": "fuchushi",
                "adm_area1": "Tokyo",
                "adm_area2": "Fuchu",
                "country": "Japan",
                "lat": "35.66667N",
                "lon": "139.5E",
                "timezone": "Asia/Tokyo",
                "type": "administrative_area"
            },
            {
                "name": "Minato-ku",
                "place_id": "minatoku",
                "adm_area1": "Tokyo",
                "adm_area2": "Minato-ku",
                "country": "Japan",
                "lat": "35.65N",
                "lon": "139.73333E",
                "timezone": "Asia/Tokyo",
                "type": "administrative_area"
            }
        ]
    },
    "{'text': 'Tokyo', 'language': 'en'}": {
        "error": "",
        "response": [
            {
                "name": "Tokyo",
                "place_id": "tokyo",
                "adm_area1": "Tokyo",
                "adm_area2": null,
                "country": "Japan",
                "lat": "35.6895N",
                "lon": "139.69171E",
                "timezone": "Asia/Tokyo",
                "type": "settlement"
            },
            {
                "name": "Tokyo",
                "place_id": "tokyo-7945384",
                "adm_area1": "Karnali Pradesh",
                "adm_area2": "Dolpa",
                "country": "Federal Democratic Republic of Nepal",
                "lat": "29.16998N",
                "lon": "83.16319E",
                "timezone": "Asia/Kathmandu",
                "type": "settlement"
            },
            {
                "name": "Tokyo",
                "place_id": "tokyo-2085290",
                "adm_area1": "Central Province",
                "adm_area2": null,
                "country": "Papua New Guinea",
                "lat": "8.4S",
                "lon": "147.15E",
                "timezone": "Pacific/Port_Moresby",
                "type": "settlement"
            },
            {
                "name": "Tokyo",
                "place_id": "tokyo-prefecture",
                "adm_area1": "Tokyo",
                "adm_area2": null,
                "country": "Japan",
                "lat": "35.6895N",
                "lon": "139.69171E",
                "timezone": "Asia/Tokyo",
                "type": "administrative_area"
            },
            {
                "name": "Hachi\u014dji",
                "place_id": "hachioji",
                "adm_area1": "Tokyo",
                "adm_area2": "Hachi\u014dji",
                "country": "Japan",
                "lat": "35.65583N",
                "lon": "139.32389E",
                "timezone": "Asia/Tokyo",
                "type": "settlement"
            },
            {
                "name": "Machida",
                "place_id": "machida",
                "adm_area1": "Tokyo",
                "adm_area2": "Machida-shi",
                "country": "Japan",
                "lat": "35.54028N",
                "lon": "139.45083E",
                "timezone": "Asia/Tokyo",
                "type": "settlement"
            },
            {
                "name": "Hachi\u014dji",
                "place_id": "hachiojishi",
                "adm_area1": "Tokyo",
                "adm_area2": "Hachi\u014dji",
                "country": "Japan",
                "lat": "35.65983N",
                "lon": "139.28766E",
                "timezone": "Asia/Tokyo",
                "type": "administrative_area"
            },
            {
                "name": "Machida-shi",
                "place_id": "machidashi",
                "adm_area1": "Tokyo",
                "adm_area2": "Machida-shi",
                "country": "Japan",
                "lat": "35.57626N",
                "lon": "139.42998E",
                "timezone": "Asia/Tokyo",
                "type": "administrative_area"
            },
            {
                "name": "Shinagawa",
                "place_id": "shinagawaku",
                "adm_area1": "Tokyo",
                "adm_area2": "Shinagawa",
                "country": "Japan",
                "lat": "35.60902N",
                "lon": "139.73017E",
                "timezone": "Asia/Tokyo",
                "type": "administrative_area"
            },
            {
                "name": "Shinjuku",
                "place_id": "shinjukuku",
                "adm_area1": "Tokyo",
                "adm_area2": "Shinjuku",
                "country": "Japan",
                "lat": "35.69384N",
                "lon": "139.70355E",
                "timezone": "Asia/Tokyo",
                "type": "administrative_area"
            }
        ]
    },
    "{'text': 'ABC'}": {
        "error": "",
        "response": [
            {
                "name": "Grande ABC",
                "place_id": "grande-abc-7289246",
                "adm_area1": "S\u00e3o Paulo",
                "adm_area2": "S\u00e3o Bernardo do Campo",
                "country": "Brazil",
                "lat": "23.6712S",
                "lon": "46.5797W",
                "timezone": "America/Sao_Paulo",
                "type": "settlement"
            },
            {
                "name": "ABC (Los Canelos) [Empaque]",
                "place_id": "abc-los-canelos-empaque-8900390",
                "adm_area1": "Free and Sovereign State of Baja California",
                "adm_area2": "Ensenada Municipality",
                "country": "Mexico",
                "lat": "30.67056N",
                "lon": "115.97306W",
                "timezone": "America/Tijuana",
                "type": "settlement"
            },
            {
                "name": "El ABC",
                "place_id": "el-abc-3802973",
                "adm_area1": "Tabasco",
                "adm_area2": "Balanc\u00e1n",
                "country": "Mexico",
                "lat": "17.875N",
                "lon": "91.36667W",
                "timezone": "America/Mexico_City",
                "type": "settlement"
            },
            {
                "name": "ABC islands",
                "place_id": "abc-islands",
                "adm_area1": null,
                "adm_area2": null,
                "country": null,
                "lat": "12.2756N",
                "lon": "69.11224W",
                "timezone": "America/Curacao",
                "type": "island"
            },
            {
                "name": "Abc Dam",
                "place_id": "abc-dam",
                "adm_area1": "Tennessee",
                "adm_area2": "Bledsoe",
                "country": "United States of America",
                "lat": "35.58007N",
                "lon": "85.14329W",
                "timezone": "America/Chicago",
                "type": "dam"
            },
            {
                "name": "Abc Lake",
                "place_id": "abc-lake",
                "adm_area1": "Tennessee",
                "adm_area2": "Bledsoe",
                "country": "United States of America",
                "lat": "35.58007N",
                "lon": "85.14329W",
                "timezone": "America/Chicago",
                "type": "reservoir"
            },
            {
                "name": "ABC Falls",
                "place_id": "abc-falls",
                "adm_area1": "Cuyuni-Mazaruni",
                "adm_area2": null,
                "country": "Guyana",
                "lat": "6.05N",
                "lon": "60.66667W",
                "timezone": "America/Guyana",
                "type": "falls"
            },
            {
                "name": "ABC City Park",
                "place_id": "abc-city-park",
                "adm_area1": "Iowa",
                "adm_area2": "Adair",
                "country": "United States of America",
                "lat": "41.20221N",
                "lon": "94.4183W",
                "timezone": "America/Chicago",
                "type": "park"
            },
            {
                "name": "ABC Playground",
                "place_id": "abc-playground",
                "adm_area1": "New York",
                "adm_area2": "New York County",
                "country": "United States of America",
                "lat": "40.72167N",
                "lon": "73.98611W",
                "timezone": "America/New_York",
                "type": "park"
            },
            {
                "name": "ABC Little League Field",
                "place_id": "abc-little-league-field",
                "adm_area1": "Montana",
                "adm_area2": "Dawson",
                "country": "United States of America",
                "lat": "47.11335N",
                "lon": "104.71024W",
                "timezone": "America/Denver",
                "type": "park"
            }
        ]
    },
    "{'text': 'Napa Valley'}": {
        "error": "",
        "response": [
            {
                "name": "Napa",
                "place_id": "napa-county",
                "adm_area1": "California",
                "adm_area2": "Napa",
                "country": "United States of America",
                "lat": "38.50647N",
                "lon": "122.33053W",
                "timezone": "America/Los_Angeles",
                "type": "administrative_area"
            },
            {
                "name": "Napa Valley",
                "place_id": "napa-valley",
                "adm_area1": "California",
                "adm_area2": "Napa",
                "country": "United States of America",
                "lat": "38.25936N",
                "lon": "122.28886W",
                "timezone": "America/Los_Angeles",
                "type": "valley"
            },
            {
                "name": "Lake Curry 14 Dam",
                "place_id": "lake-curry-14-dam",
                "adm_area1": "California",
                "adm_area2": "Napa",
                "country": "United States of America",
                "lat": "38.35748N",
                "lon": "122.12482W",
                "timezone": "America/Los_Angeles",
                "type": "dam"
            },
            {
                "name": "Bell Valley",
                "place_id": "bell-valley-5327367",
                "adm_area1": "California",
                "adm_area2": "Napa",
                "country": "United States of America",
                "lat": "38.55907N",
                "lon": "122.48554W",
                "timezone": "America/Los_Angeles",
                "type": "valley"
            },
            {
                "name": "Bear Valley",
                "place_id": "bear-valley-5326977",
                "adm_area1": "California",
                "adm_area2": "Napa",
                "country": "United States of America",
                "lat": "38.64917N",
                "lon": "122.56083W",
                "timezone": "America/Los_Angeles",
                "type": "valley"
            },
            {
                "name": "Cedar Valley",
                "place_id": "cedar-valley-5335285",
                "adm_area1": "California",
                "adm_area2": "Napa",
                "country": "United States of America",
                "lat": "38.77074N",
                "lon": "122.36137W",
                "timezone": "America/Los_Angeles",
                "type": "valley"
            },
            {
                "name": "Cedar Valley",
                "place_id": "cedar-valley-5335284",
                "adm_area1": "California",
                "adm_area2": "Napa",
                "country": "United States of America",
                "lat": "38.71361N",
                "lon": "122.32889W",
                "timezone": "America/Los_Angeles",
                "type": "valley"
            },
            {
                "name": "Cherry Valley",
                "place_id": "cherry-valley-5336184",
                "adm_area1": "California",
                "adm_area2": "Napa",
                "country": "United States of America",
                "lat": "38.4838N",
                "lon": "122.15858W",
                "timezone": "America/Los_Angeles",
                "type": "valley"
            },
            {
                "name": "Little Valley",
                "place_id": "little-valley-5367278",
                "adm_area1": "California",
                "adm_area2": "Napa",
                "country": "United States of America",
                "lat": "38.45685N",
                "lon": "122.19025W",
                "timezone": "America/Los_Angeles",
                "type": "valley"
            },
            {
                "name": "Spring Valley",
                "place_id": "spring-valley-5398274",
                "adm_area1": "California",
                "adm_area2": "Napa",
                "country": "United States of America",
                "lat": "38.50102N",
                "lon": "122.41553W",
                "timezone": "America/Los_Angeles",
                "type": "valley"
            }
        ]
    },
    "{'text': 'Sonoma Valley'}": {
        "error": "",
        "response": [
            {
                "name": "Sonoma Valley",
                "place_id": "sonoma-valley",
                "adm_area1": "California",
                "adm_area2": "Sonoma",
                "country": "United States of America",
                "lat": "38.20825N",
                "lon": "122.41776W",
                "timezone": "America/Los_Angeles",
                "type": "valley"
            },
            {
                "name": "Valley Ford",
                "place_id": "valley-ford-5405487",
                "adm_area1": "California",
                "adm_area2": "Sonoma",
                "country": "United States of America",
                "lat": "38.31797N",
                "lon": "122.92416W",
                "timezone": "America/Los_Angeles",
                "type": "settlement"
            },
            {
                "name": "Valley Crossing",
                "place_id": "valley-crossing-5405477",
                "adm_area1": "California",
                "adm_area2": "Sonoma",
                "country": "United States of America",
                "lat": "38.69963N",
                "lon": "123.41362W",
                "timezone": "America/Los_Angeles",
                "type": "settlement"
            },
            {
                "name": "Grass Valley",
                "place_id": "grass-valley-5353777",
                "adm_area1": "California",
                "adm_area2": "Sonoma",
                "country": "United States of America",
                "lat": "38.69361N",
                "lon": "122.995W",
                "timezone": "America/Los_Angeles",
                "type": "valley"
            },
            {
                "name": "Hidden Valley",
                "place_id": "hidden-valley-5356762",
                "adm_area1": "California",
                "adm_area2": "Sonoma",
                "country": "United States of America",
                "lat": "38.49852N",
                "lon": "123.02139W",
                "timezone": "America/Los_Angeles",
                "type": "valley"
            },
            {
                "name": "Rincon Valley",
                "place_id": "rincon-valley-5387626",
                "adm_area1": "California",
                "adm_area2": "Sonoma",
                "country": "United States of America",
                "lat": "38.47908N",
                "lon": "122.66776W",
                "timezone": "America/Los_Angeles",
                "type": "valley"
            },
            {
                "name": "Alexander Valley",
                "place_id": "alexander-valley-5323035",
                "adm_area1": "California",
                "adm_area2": "Sonoma",
                "country": "United States of America",
                "lat": "38.61296N",
                "lon": "122.76943W",
                "timezone": "America/Los_Angeles",
                "type": "valley"
            },
            {
                "name": "Hidden Valley Park",
                "place_id": "hidden-valley-park-5356775",
                "adm_area1": "California",
                "adm_area2": "Sonoma",
                "country": "United States of America",
                "lat": "38.47519N",
                "lon": "122.70054W",
                "timezone": "America/Los_Angeles",
                "type": "park"
            },
            {
                "name": "Valley of the Moon",
                "place_id": "valley-of-the-moon-5405621",
                "adm_area1": "California",
                "adm_area2": "Sonoma",
                "country": "United States of America",
                "lat": "38.29991N",
                "lon": "122.48443W",
                "timezone": "America/Los_Angeles",
                "type": "valley"
            },
            {
                "name": "Rincon Valley Community Park",
                "place_id": "rincon-valley-community-park",
                "adm_area1": "California",
                "adm_area2": "Sonoma",
                "country": "United States of America",
                "lat": "38.49685N",
                "lon": "122.6636W",
                "timezone": "America/Los_Angeles",
                "type": "park"
            }
        ]
    },
    "{'text': 'wine regions in California'}": {
        "error": "",
        "response": []
    },
    "{'text': 'California wine regions'}": {
        "error": "",
        "response": []
    },
    "{'text': 'wineries in Napa Valley'}": {
        "error": "",
        "response": []
    },
    "{'text': 'wineries in California'}": {
        "error": "",
        "response": []
    },
    "{'text': 'vineyards in Napa Valley'}": {
        "error": "",
        "response": []
    },
    "{'text': 'wineries in Sonoma County'}": {
        "error": "",
        "response": []
    },
    "{'text': 'london'}": {
        "error": "",
        "response": [
            {
                "name": "London",
                "place_id": "london",
                "adm_area1": "England",
                "adm_area2": "Greater London",
                "country": "United Kingdom",
                "lat": "51.50853N",
                "lon": "0.12574W",
                "timezone": "Europe/London",
                "type": "settlement"
            },
            {
                "name": "London",
                "place_id": "london-6058560",
                "adm_area1": "Ontario",
                "adm_area2": null,
                "country": "Canada",
                "lat": "42.98339N",
                "lon": "81.23304W",
                "timezone": "America/Toronto",
                "type": "settlement"
            },
            {
                "name": "London",
                "place_id": "london-4298960",
                "adm_area1": "Kentucky",
                "adm_area2": "Laurel",
                "country": "United States of America",
                "lat": "37.12898N",
                "lon": "84.08326W",
                "timezone": "America/New_York",
                "type": "settlement"
            },
            {
                "name": "City of London",
                "place_id": "city-of-london",
                "adm_area1": "England",
                "adm_area2": "Greater London",
                "country": "United Kingdom",
                "lat": "51.51279N",
                "lon": "0.09184W",
                "timezone": "Europe/London",
                "type": "settlement"
            },
            {
                "name": "London",
                "place_id": "london-4517009",
                "adm_area1": "Ohio",
                "adm_area2": "Madison",
                "country": "United States of America",
                "lat": "39.88645N",
                "lon": "83.44825W",
                "timezone": "America/New_York",
                "type": "settlement"
            },
            {
                "name": "London",
                "place_id": "london-5367815",
                "adm_area1": "California",
                "adm_area2": "Tulare",
                "country": "United States of America",
                "lat": "36.47606N",
                "lon": "119.44318W",
                "timezone": "America/Los_Angeles",
                "type": "settlement"
            },
            {
                "name": "London Village",
                "place_id": "london-village",
                "adm_area1": "Line Islands",
                "adm_area2": "Kiritimati",
                "country": "Kiribati",
                "lat": "1.98487N",
                "lon": "157.47502W",
                "timezone": "Pacific/Kiritimati",
                "type": "settlement"
            },
            {
                "name": "London",
                "place_id": "london-4119617",
                "adm_area1": "Arkansas",
                "adm_area2": "Pope",
                "country": "United States of America",
                "lat": "35.32897N",
                "lon": "93.25296W",
                "timezone": "America/Chicago",
                "type": "settlement"
            },
            {
                "name": "London",
                "place_id": "london-4707414",
                "adm_area1": "Texas",
                "adm_area2": "Kimble",
                "country": "United States of America",
                "lat": "30.67685N",
                "lon": "99.57645W",
                "timezone": "America/Chicago",
                "type": "settlement"
            },
            {
                "name": "City of London",
                "place_id": "city-of-london-2643744",
                "adm_area1": "England",
                "adm_area2": "Greater London",
                "country": "United Kingdom",
                "lat": "51.51334N",
                "lon": "0.08901W",
                "timezone": "Europe/London",
                "type": "administrative_area"
            }
        ]
    },
    "{'text': 'wine regions California'}": {
        "error": "",
        "response": []
    },
    "{'text': 'Napa Valley, Sonoma Valley, Paso Robles, Santa Barbara'}": {
        "error": "",
        "response": []
    },
    "{'text': 'vineyards in Sonoma County'}": {
        "error": "",
        "response": []
    },
    "{'text': 'popular wine regions in California'}": {
        "error": "",
        "response": []
    },
    "{'text': 'Napa Valley, California'}": {
        "error": "",
        "response": [
            {
                "name": "Napa",
                "place_id": "napa-county",
                "adm_area1": "California",
                "adm_area2": "Napa",
                "country": "United States of America",
                "lat": "38.50647N",
                "lon": "122.33053W",
                "timezone": "America/Los_Angeles",
                "type": "administrative_area"
            },
            {
                "name": "Lake Curry 14 Dam",
                "place_id": "lake-curry-14-dam",
                "adm_area1": "California",
                "adm_area2": "Napa",
                "country": "United States of America",
                "lat": "38.35748N",
                "lon": "122.12482W",
                "timezone": "America/Los_Angeles",
                "type": "dam"
            },
            {
                "name": "Bell Valley",
                "place_id": "bell-valley-5327367",
                "adm_area1": "California",
                "adm_area2": "Napa",
                "country": "United States of America",
                "lat": "38.55907N",
                "lon": "122.48554W",
                "timezone": "America/Los_Angeles",
                "type": "valley"
            },
            {
                "name": "Bear Valley",
                "place_id": "bear-valley-5326977",
                "adm_area1": "California",
                "adm_area2": "Napa",
                "country": "United States of America",
                "lat": "38.64917N",
                "lon": "122.56083W",
                "timezone": "America/Los_Angeles",
                "type": "valley"
            },
            {
                "name": "Cedar Valley",
                "place_id": "cedar-valley-5335285",
                "adm_area1": "California",
                "adm_area2": "Napa",
                "country": "United States of America",
                "lat": "38.77074N",
                "lon": "122.36137W",
                "timezone": "America/Los_Angeles",
                "type": "valley"
            },
            {
                "name": "Cedar Valley",
                "place_id": "cedar-valley-5335284",
                "adm_area1": "California",
                "adm_area2": "Napa",
                "country": "United States of America",
                "lat": "38.71361N",
                "lon": "122.32889W",
                "timezone": "America/Los_Angeles",
                "type": "valley"
            },
            {
                "name": "Cherry Valley",
                "place_id": "cherry-valley-5336184",
                "adm_area1": "California",
                "adm_area2": "Napa",
                "country": "United States of America",
                "lat": "38.4838N",
                "lon": "122.15858W",
                "timezone": "America/Los_Angeles",
                "type": "valley"
            },
            {
                "name": "Little Valley",
                "place_id": "little-valley-5367278",
                "adm_area1": "California",
                "adm_area2": "Napa",
                "country": "United States of America",
                "lat": "38.45685N",
                "lon": "122.19025W",
                "timezone": "America/Los_Angeles",
                "type": "valley"
            },
            {
                "name": "Spring Valley",
                "place_id": "spring-valley-5398274",
                "adm_area1": "California",
                "adm_area2": "Napa",
                "country": "United States of America",
                "lat": "38.50102N",
                "lon": "122.41553W",
                "timezone": "America/Los_Angeles",
                "type": "valley"
            },
            {
                "name": "Gordon Valley",
                "place_id": "gordon-valley-5353157",
                "adm_area1": "California",
                "adm_area2": "Napa",
                "country": "United States of America",
                "lat": "38.33463N",
                "lon": "122.12719W",
                "timezone": "America/Los_Angeles",
                "type": "valley"
            }
        ]
    },
    "{'text': 'Sonoma Valley, California'}": {
        "error": "",
        "response": [
            {
                "name": "Valley Ford",
                "place_id": "valley-ford-5405487",
                "adm_area1": "California",
                "adm_area2": "Sonoma",
                "country": "United States of America",
                "lat": "38.31797N",
                "lon": "122.92416W",
                "timezone": "America/Los_Angeles",
                "type": "settlement"
            },
            {
                "name": "Valley Crossing",
                "place_id": "valley-crossing-5405477",
                "adm_area1": "California",
                "adm_area2": "Sonoma",
                "country": "United States of America",
                "lat": "38.69963N",
                "lon": "123.41362W",
                "timezone": "America/Los_Angeles",
                "type": "settlement"
            },
            {
                "name": "Sonoma Valley",
                "place_id": "sonoma-valley",
                "adm_area1": "California",
                "adm_area2": "Sonoma",
                "country": "United States of America",
                "lat": "38.20825N",
                "lon": "122.41776W",
                "timezone": "America/Los_Angeles",
                "type": "valley"
            },
            {
                "name": "Grass Valley",
                "place_id": "grass-valley-5353777",
                "adm_area1": "California",
                "adm_area2": "Sonoma",
                "country": "United States of America",
                "lat": "38.69361N",
                "lon": "122.995W",
                "timezone": "America/Los_Angeles",
                "type": "valley"
            },
            {
                "name": "Hidden Valley",
                "place_id": "hidden-valley-5356762",
                "adm_area1": "California",
                "adm_area2": "Sonoma",
                "country": "United States of America",
                "lat": "38.49852N",
                "lon": "123.02139W",
                "timezone": "America/Los_Angeles",
                "type": "valley"
            },
            {
                "name": "Rincon Valley",
                "place_id": "rincon-valley-5387626",
                "adm_area1": "California",
                "adm_area2": "Sonoma",
                "country": "United States of America",
                "lat": "38.47908N",
                "lon": "122.66776W",
                "timezone": "America/Los_Angeles",
                "type": "valley"
            },
            {
                "name": "Alexander Valley",
                "place_id": "alexander-valley-5323035",
                "adm_area1": "California",
                "adm_area2": "Sonoma",
                "country": "United States of America",
                "lat": "38.61296N",
                "lon": "122.76943W",
                "timezone": "America/Los_Angeles",
                "type": "valley"
            },
            {
                "name": "Hidden Valley Park",
                "place_id": "hidden-valley-park-5356775",
                "adm_area1": "California",
                "adm_area2": "Sonoma",
                "country": "United States of America",
                "lat": "38.47519N",
                "lon": "122.70054W",
                "timezone": "America/Los_Angeles",
                "type": "park"
            },
            {
                "name": "Valley of the Moon",
                "place_id": "valley-of-the-moon-5405621",
                "adm_area1": "California",
                "adm_area2": "Sonoma",
                "country": "United States of America",
                "lat": "38.29991N",
                "lon": "122.48443W",
                "timezone": "America/Los_Angeles",
                "type": "valley"
            },
            {
                "name": "Rincon Valley Community Park",
                "place_id": "rincon-valley-community-park",
                "adm_area1": "California",
                "adm_area2": "Sonoma",
                "country": "United States of America",
                "lat": "38.49685N",
                "lon": "122.6636W",
                "timezone": "America/Los_Angeles",
                "type": "park"
            }
        ]
    },
    "{'text': 'team-building activities in San Francisco', 'language': 'en'}": {
        "error": "",
        "response": []
    },
    "{'text': 'indoor team-building activities', 'language': 'en'}": {
        "error": "",
        "response": []
    },
    "{'text': 'indoor team-building activities near San Francisco'}": {
        "error": "",
        "response": []
    },
    "{'text': 'hotels near San Francisco'}": {
        "error": "",
        "response": []
    },
    "{'text': 'indoor activities in San Francisco'}": {
        "error": "",
        "response": []
    },
    "{'text': 'company retreat'}": {
        "error": "",
        "response": []
    },
    "{'text': 'San Francisco'}": {
        "error": "",
        "response": [
            {
                "name": "San Francisco",
                "place_id": "san-francisco",
                "adm_area1": "California",
                "adm_area2": "San Francisco County",
                "country": "United States of America",
                "lat": "37.77493N",
                "lon": "122.41942W",
                "timezone": "America/Los_Angeles",
                "type": "settlement"
            },
            {
                "name": "San Francisco",
                "place_id": "san-francisco-3837675",
                "adm_area1": "Cordoba",
                "adm_area2": "Departamento de San Justo",
                "country": "Argentine Republic",
                "lat": "31.42797S",
                "lon": "62.08266W",
                "timezone": "America/Argentina/Cordoba",
                "type": "settlement"
            },
            {
                "name": "San Francisco",
                "place_id": "san-francisco-3621911",
                "adm_area1": "Heredia",
                "adm_area2": "Heredia",
                "country": "Republic of Costa Rica",
                "lat": "9.99299N",
                "lon": "84.12934W",
                "timezone": "America/Costa_Rica",
                "type": "settlement"
            },
            {
                "name": "San Francisco El Alto",
                "place_id": "san-francisco-el-alto",
                "adm_area1": "Totonicap\u00e1n",
                "adm_area2": null,
                "country": "Republic of Guatemala",
                "lat": "14.9449N",
                "lon": "91.4431W",
                "timezone": "America/Guatemala",
                "type": "settlement"
            },
            {
                "name": "Xonacatl\u00e1n",
                "place_id": "xonacatlan",
                "adm_area1": "State of Mexico",
                "adm_area2": "Xonacatlan",
                "country": "Mexico",
                "lat": "19.40513N",
                "lon": "99.52807W",
                "timezone": "America/Mexico_City",
                "type": "settlement"
            },
            {
                "name": "San Francisco",
                "place_id": "san-francisco-1689973",
                "adm_area1": "Central Luzon",
                "adm_area2": "Province of Nueva Ecija",
                "country": "Philippines",
                "lat": "15.35566N",
                "lon": "120.84001E",
                "timezone": "Asia/Manila",
                "type": "settlement"
            },
            {
                "name": "San Francisco",
                "place_id": "san-francisco-1690019",
                "adm_area1": "Caraga",
                "adm_area2": "Province of Agusan del Sur",
                "country": "Philippines",
                "lat": "8.53556N",
                "lon": "125.95E",
                "timezone": "Asia/Manila",
                "type": "settlement"
            },
            {
                "name": "San Francisco",
                "place_id": "san-francisco-1690024",
                "adm_area1": "Caraga",
                "adm_area2": "Province of Agusan del Sur",
                "country": "Philippines",
                "lat": "8.5N",
                "lon": "125.93333E",
                "timezone": "Asia/Manila",
                "type": "administrative_area"
            },
            {
                "name": "San Francisco (Aurora)",
                "place_id": "san-francisco-aurora",
                "adm_area1": "Calabarzon",
                "adm_area2": "Quezon",
                "country": "Philippines",
                "lat": "13.31667N",
                "lon": "122.55E",
                "timezone": "Asia/Manila",
                "type": "administrative_area"
            },
            {
                "name": "San Francisco",
                "place_id": "san-francisco-1690021",
                "adm_area1": "Central Visayas",
                "adm_area2": "Province of Cebu",
                "country": "Philippines",
                "lat": "10.65N",
                "lon": "124.33333E",
                "timezone": "Asia/Manila",
                "type": "administrative_area"
            }
        ]
    },
    "{'text': 'accommodation'}": {
        "error": "",
        "response": [
            {
                "name": "Accommodation Hill",
                "place_id": "accommodation-hill",
                "adm_area1": "South Australia",
                "adm_area2": "Mid Murray",
                "country": "Australia",
                "lat": "34.39963S",
                "lon": "139.21113E",
                "timezone": "Australia/Adelaide",
                "type": "hill"
            }
        ]
    },
    "{'text': 'hiking trails'}": {
        "error": "",
        "response": []
    },
    "{'text': 'Mountain View'}": {
        "error": "",
        "response": [
            {
                "name": "Mountain View",
                "place_id": "mountain-view",
                "adm_area1": "California",
                "adm_area2": "Santa Clara County",
                "country": "United States of America",
                "lat": "37.38605N",
                "lon": "122.08385W",
                "timezone": "America/Los_Angeles",
                "type": "settlement"
            },
            {
                "name": "Villa Park",
                "place_id": "villa-park",
                "adm_area1": "California",
                "adm_area2": "Orange",
                "country": "United States of America",
                "lat": "33.81446N",
                "lon": "117.81311W",
                "timezone": "America/Los_Angeles",
                "type": "settlement"
            },
            {
                "name": "Mountain View",
                "place_id": "mountain-view-4122986",
                "adm_area1": "Arkansas",
                "adm_area2": "Stone",
                "country": "United States of America",
                "lat": "35.86841N",
                "lon": "92.11765W",
                "timezone": "America/Chicago",
                "type": "settlement"
            },
            {
                "name": "Magalia",
                "place_id": "magalia",
                "adm_area1": "California",
                "adm_area2": "Butte",
                "country": "United States of America",
                "lat": "39.81211N",
                "lon": "121.57831W",
                "timezone": "America/Los_Angeles",
                "type": "settlement"
            },
            {
                "name": "North Bend",
                "place_id": "north-bend-5804915",
                "adm_area1": "Washington",
                "adm_area2": "King",
                "country": "United States of America",
                "lat": "47.49566N",
                "lon": "121.78678W",
                "timezone": "America/Los_Angeles",
                "type": "settlement"
            },
            {
                "name": "Mountain View",
                "place_id": "mountain-view-5851253",
                "adm_area1": "Hawaii",
                "adm_area2": "Hawaii County",
                "country": "United States of America",
                "lat": "19.55583N",
                "lon": "155.10806W",
                "timezone": "Pacific/Honolulu",
                "type": "settlement"
            },
            {
                "name": "Edgewood",
                "place_id": "edgewood-5466336",
                "adm_area1": "New Mexico",
                "adm_area2": "Santa Fe",
                "country": "United States of America",
                "lat": "35.06144N",
                "lon": "106.19141W",
                "timezone": "America/Denver",
                "type": "settlement"
            },
            {
                "name": "Mountain View",
                "place_id": "mountain-view-4481090",
                "adm_area1": "North Carolina",
                "adm_area2": "Catawba",
                "country": "United States of America",
                "lat": "35.68319N",
                "lon": "81.36898W",
                "timezone": "America/New_York",
                "type": "settlement"
            },
            {
                "name": "Mountain View",
                "place_id": "mountain-view-4399745",
                "adm_area1": "Missouri",
                "adm_area2": "Howell",
                "country": "United States of America",
                "lat": "36.99533N",
                "lon": "91.70376W",
                "timezone": "America/Chicago",
                "type": "settlement"
            },
            {
                "name": "Mountain View",
                "place_id": "mountain-view-5375478",
                "adm_area1": "California",
                "adm_area2": "Contra Costa",
                "country": "United States of America",
                "lat": "38.00881N",
                "lon": "122.11746W",
                "timezone": "America/Los_Angeles",
                "type": "settlement"
            }
        ]
    },
    "{'text': 'hiking trails in Mountain View'}": {
        "error": "",
        "response": []
    },
    "{'text': 'hiking trails near Mountain View'}": {
        "error": "",
        "response": []
    },
    "{'text': 'John F. Kennedy International Airport'}": {
        "error": "",
        "response": [
            {
                "name": "John F. Kennedy International Airport",
                "place_id": "john-f-kennedy-international-airport",
                "adm_area1": "New York",
                "adm_area2": "Queens County",
                "country": "United States of America",
                "lat": "40.63983N",
                "lon": "73.77874W",
                "timezone": "America/New_York",
                "type": "airport"
            }
        ]
    },
    "{'text': 'Los Angeles International Airport'}": {
        "error": "",
        "response": [
            {
                "name": "Los Angeles International Airport",
                "place_id": "los-angeles-international-airport",
                "adm_area1": "California",
                "adm_area2": "Los Angeles",
                "country": "United States of America",
                "lat": "33.94251N",
                "lon": "118.40897W",
                "timezone": "America/Los_Angeles",
                "type": "airport"
            }
        ]
    },
    "{'text': \"O'Hare International Airport\"}": {
        "error": "",
        "response": [
            {
                "name": "Chicago O'Hare International Airport",
                "place_id": "chicago-ohare-international-airport",
                "adm_area1": "Illinois",
                "adm_area2": "Cook",
                "country": "United States of America",
                "lat": "41.97959N",
                "lon": "87.90446W",
                "timezone": "America/Chicago",
                "type": "airport"
            }
        ]
    },
    "{'text': 'JFK'}": {
        "error": "",
        "response": [
            {
                "name": "John F. Kennedy International Airport",
                "place_id": "john-f-kennedy-international-airport",
                "adm_area1": "New York",
                "adm_area2": "Queens County",
                "country": "United States of America",
                "lat": "40.63983N",
                "lon": "73.77874W",
                "timezone": "America/New_York",
                "type": "airport"
            },
            {
                "name": "JFK Dam",
                "place_id": "jfk-dam",
                "adm_area1": "Montana",
                "adm_area2": "Phillips",
                "country": "United States of America",
                "lat": "48.24333N",
                "lon": "108.25902W",
                "timezone": "America/Denver",
                "type": "dam"
            },
            {
                "name": "JFK Memorial Coliseum",
                "place_id": "jfk-memorial-coliseum",
                "adm_area1": "New Hampshire",
                "adm_area2": "Hillsborough County",
                "country": "United States of America",
                "lat": "42.98314N",
                "lon": "71.45451W",
                "timezone": "America/New_York",
                "type": "park"
            },
            {
                "name": "JFK Medical Center Incorporated Heliport",
                "place_id": "jfk-medical-center-incorporated-heliport",
                "adm_area1": "Florida",
                "adm_area2": "Palm Beach",
                "country": "United States of America",
                "lat": "26.59979N",
                "lon": "80.09115W",
                "timezone": "America/New_York",
                "type": "heliport"
            },
            {
                "name": "John Fitzgerald Kennedy National Historic Site",
                "place_id": "john-fitzgerald-kennedy-national-historic-site",
                "adm_area1": "Massachusetts",
                "adm_area2": "Norfolk",
                "country": "United States of America",
                "lat": "42.34694N",
                "lon": "71.12324W",
                "timezone": "America/New_York",
                "type": "park"
            }
        ]
    },
    "{'text': 'LAX Los Angeles'}": {
        "error": "",
        "response": []
    },
    "{'text': 'John F. Kennedy Airport'}": {
        "error": "",
        "response": [
            {
                "name": "John F. Kennedy International Airport",
                "place_id": "john-f-kennedy-international-airport",
                "adm_area1": "New York",
                "adm_area2": "Queens County",
                "country": "United States of America",
                "lat": "40.63983N",
                "lon": "73.77874W",
                "timezone": "America/New_York",
                "type": "airport"
            },
            {
                "name": "John F Kennedy Park",
                "place_id": "john-f-kennedy-park-5360886",
                "adm_area1": "California",
                "adm_area2": "Alameda",
                "country": "United States of America",
                "lat": "37.66826N",
                "lon": "122.12108W",
                "timezone": "America/Los_Angeles",
                "type": "park"
            },
            {
                "name": "John F Kennedy Memorial Airport",
                "place_id": "john-f-kennedy-memorial-airport",
                "adm_area1": "Wisconsin",
                "adm_area2": "Ashland",
                "country": "United States of America",
                "lat": "46.54828N",
                "lon": "90.9188W",
                "timezone": "America/Chicago",
                "type": "airport"
            }
        ]
    },
    "{'text': 'John F. Kennedy Airport, New York'}": {
        "error": "",
        "response": [
            {
                "name": "John F. Kennedy International Airport",
                "place_id": "john-f-kennedy-international-airport",
                "adm_area1": "New York",
                "adm_area2": "Queens County",
                "country": "United States of America",
                "lat": "40.63983N",
                "lon": "73.77874W",
                "timezone": "America/New_York",
                "type": "airport"
            }
        ]
    },
    "{'text': 'Honolulu'}": {
        "error": "",
        "response": [
            {
                "name": "Honolulu",
                "place_id": "honolulu",
                "adm_area1": "Hawaii",
                "adm_area2": "Honolulu County",
                "country": "United States of America",
                "lat": "21.30694N",
                "lon": "157.85833W",
                "timezone": "Pacific/Honolulu",
                "type": "settlement"
            },
            {
                "name": "Honolulu",
                "place_id": "honolulu-4471780",
                "adm_area1": "North Carolina",
                "adm_area2": "Craven County",
                "country": "United States of America",
                "lat": "35.36294N",
                "lon": "77.28163W",
                "timezone": "America/New_York",
                "type": "settlement"
            },
            {
                "name": "Honolulu County",
                "place_id": "honolulu-county",
                "adm_area1": "Hawaii",
                "adm_area2": "Honolulu County",
                "country": "United States of America",
                "lat": "21.45543N",
                "lon": "157.96138W",
                "timezone": "Pacific/Honolulu",
                "type": "administrative_area"
            },
            {
                "name": "Honolulu",
                "place_id": "hawaiian-beaches-5856199",
                "adm_area1": "Hawaii",
                "adm_area2": "Hawaii County",
                "country": "United States of America",
                "lat": "19.55417N",
                "lon": "154.89W",
                "timezone": "Pacific/Honolulu",
                "type": "administrative_area"
            },
            {
                "name": "Honolulu",
                "place_id": "honolulu-10064434",
                "adm_area1": "Central Finland",
                "adm_area2": "Jyv\u00e4skyl\u00e4",
                "country": "Finland",
                "lat": "62.02538N",
                "lon": "26.07524E",
                "timezone": "Europe/Helsinki",
                "type": "island"
            },
            {
                "name": "Kailua",
                "place_id": "kailua",
                "adm_area1": "Hawaii",
                "adm_area2": "Honolulu County",
                "country": "United States of America",
                "lat": "21.40241N",
                "lon": "157.74054W",
                "timezone": "Pacific/Honolulu",
                "type": "settlement"
            },
            {
                "name": "Waipahu",
                "place_id": "waipahu",
                "adm_area1": "Hawaii",
                "adm_area2": "Honolulu County",
                "country": "United States of America",
                "lat": "21.38667N",
                "lon": "158.00917W",
                "timezone": "Pacific/Honolulu",
                "type": "settlement"
            },
            {
                "name": "East Honolulu",
                "place_id": "east-honolulu",
                "adm_area1": "Hawaii",
                "adm_area2": "Honolulu County",
                "country": "United States of America",
                "lat": "21.28906N",
                "lon": "157.71734W",
                "timezone": "Pacific/Honolulu",
                "type": "settlement"
            },
            {
                "name": "Pearl City",
                "place_id": "pearl-city",
                "adm_area1": "Hawaii",
                "adm_area2": "Honolulu County",
                "country": "United States of America",
                "lat": "21.39734N",
                "lon": "157.97516W",
                "timezone": "Pacific/Honolulu",
                "type": "settlement"
            },