{
    "{'address': 'New York'}": {
        "error": "",
        "response": {
            "address": "New York, NY, USA",
            "location": {
                "lat": 40.7127753,
                "lng": -74.0059728
            },
            "place_id": "ChIJOwg_06VPwokRYv534QaPC8g"
        }
    },
    "{'address': 'Los Angeles'}": {
        "error": "",
        "response": {
            "address": "Los Angeles, CA, USA",
            "location": {
                "lat": 34.0522342,
                "lng": -118.2436849
            },
            "place_id": "ChIJE9on3F3HwoAR9AhGJW_fL-I"
        }
    },
    "{'address': 'Las Vegas'}": {
        "error": "",
        "response": {
            "address": "Las Vegas, NV, USA",
            "location": {
                "lat": 36.171563,
                "lng": -115.1391009
            },
            "place_id": "ChIJ0X31pIK3voARo3mz1ebVzDo"
        }
    },
    "{'address': 'Chicago'}": {
        "error": "",
        "response": {
            "address": "Chicago, IL, USA",
            "location": {
                "lat": 41.8781136,
                "lng": -87.6297982
            },
            "place_id": "ChIJ7cv00DwsDogRAMDACa2m4K8"
        }
    },
    "{'address': 'San Francisco'}": {
        "error": "",
        "response": {
            "address": "San Francisco, CA, USA",
            "location": {
                "lat": 37.7749295,
                "lng": -122.4194155
            },
            "place_id": "ChIJIQBpAG2ahYAR_6128GcTUEo"
        }
    },
    "{'address': 'Los Angeles, CA'}": {
        "error": "",
        "response": {
            "address": "Los Angeles, CA, USA",
            "location": {
                "lat": 34.0522342,
                "lng": -118.2436849
            },
            "place_id": "ChIJE9on3F3HwoAR9AhGJW_fL-I"
        }
    },
    "{'address': 'San Francisco, CA'}": {
        "error": "",
        "response": {
            "address": "San Francisco, CA, USA",
            "location": {
                "lat": 37.7749295,
                "lng": -122.4194155
            },
            "place_id": "ChIJIQBpAG2ahYAR_6128GcTUEo"
        }
    },
    "{'address': 'Las Vegas, NV'}": {
        "error": "",
        "response": {
            "address": "Las Vegas, NV, USA",
            "location": {
                "lat": 36.171563,
                "lng": -115.1391009
            },
            "place_id": "ChIJ0X31pIK3voARo3mz1ebVzDo"
        }
    },
    "{'address': 'Chicago, IL'}": {
        "error": "",
        "response": {
            "address": "Chicago, IL, USA",
            "location": {
                "lat": 41.8781136,
                "lng": -87.6297982
            },
            "place_id": "ChIJ7cv00DwsDogRAMDACa2m4K8"
        }
    },
    "{'address': 'New York, NY'}": {
        "error": "",
        "response": {
            "address": "New York, NY, USA",
            "location": {
                "lat": 40.7127753,
                "lng": -74.0059728
            },
            "place_id": "ChIJOwg_06VPwokRYv534QaPC8g"
        }
    },
    "{'address': 'New York City'}": {
        "error": "",
        "response": {
            "address": "New York, NY, USA",
            "location": {
                "lat": 40.7127753,
                "lng": -74.0059728
            },
            "place_id": "ChIJOwg_06VPwokRYv534QaPC8g"
        }
    },
    "{'address': 'Seattle, WA'}": {
        "error": "",
        "response": {
            "address": "Seattle, WA, USA",
            "location": {
                "lat": 47.6062095,
                "lng": -122.3320708
            },
            "place_id": "ChIJVTPokywQkFQRmtVEaUZlJRA"
        }
    },
    "{'address': 'Starting Point Address'}": {
        "error": "",
        "response": "No results found."
    },
    "{'address': 'Destination Address'}": {
        "error": "",
        "response": "No results found."
    },
    "{'address': 'my house in Seattle'}": {
        "error": "",
        "response": {
            "address": "Seattle, WA, USA",
            "location": {
                "lat": 47.6062095,
                "lng": -122.3320708
            },
            "place_id": "ChIJVTPokywQkFQRmtVEaUZlJRA"
        }
    },
    "{'address': '601 5th Ave, Seattle, WA 98104, USA'}": {
        "error": "",
        "response": {
            "address": "601 5th Ave, Seattle, WA 98104, USA",
            "location": {
                "lat": 47.6038106,
                "lng": -122.3299368
            },
            "place_id": "ChIJ3dvwBrpqkFQR1EgeTU4eg1c"
        }
    },
    "{'address': '456 Airport Avenue'}": {
        "error": "",
        "response": "No results found."
    },
    "{'address': '321 Mountain View Drive'}": {
        "error": "",
        "response": "No results found."
    },
    "{'address': '123 Main Street'}": {
        "error": "",
        "response": {
            "address": "123 Main Street Saint Julian's, St Julian's STJ 1011, Malta",
            "location": {
                "lat": 35.9187335,
                "lng": 14.4906454
            },
            "place_id": "ChIJXXTv5EFFDhMRET7DUB9CDPo"
        }
    },
    "{'address': '123 Mountain View Drive'}": {
        "error": "",
        "response": {
            "address": "Mountain Views Dr, Texas 78006, USA",
            "location": {
                "lat": 30.0115604,
                "lng": -98.6576692
            },
            "place_id": "ChIJow9lcYCFW4YRKnbFg8YBBVw"
        }
    },
    "{'address': 'Pl. Omonias 20, Athina 105 52, Greece'}": {
        "error": "",
        "response": {
            "address": "Pl. Omonias 20, Athina 104 31, Greece",
            "location": {
                "lat": 37.9839141,
                "lng": 23.7273436
            },
            "place_id": "ChIJmbgS_y-9oRQRrFTfftZhVks"
        }
    },
    "{'address': '1001 Park Avenue'}": {
        "error": "",
        "response": {
            "address": "1001 Park Ave, New York, NY 10028, USA",
            "location": {
                "lat": 40.7789265,
                "lng": -73.95777199999999
            },
            "place_id": "ChIJnazrC71YwokRUJ_V4zXPslw"
        }
    },
    "{'address': '456 Elm Avenue'}": {
        "error": "",
        "response": "No results found."
    },
    "{'address': '789 Oak Road'}": {
        "error": "",
        "response": "No results found."
    },
    "{'address': '789 Pine Lane'}": {
        "error": "",
        "response": "No results found."
    },
    "{'address': '345 Maple Street'}": {
        "error": "",
        "response": "No results found."
    },
    "{'address': '567 Birch Avenue'}": {
        "error": "",
        "response": "No results found."
    },
    "{'address': '987 Pine Street'}": {
        "error": "",
        "response": "No results found."
    },
    "{'address': '789 Oak Street'}": {
        "error": "",
        "response": "No results found."
    },
    "{'address': '789 Maple Avenue'}": {
        "error": "",
        "response": "No results found."
    },
    "{'address': '456 Elm Street'}": {
        "error": "",
        "response": "No results found."
    },
    "{'address': '987 Pine Road'}": {
        "error": "",
        "response": "No results found."
    },
    "{'address': '567 Pine Street'}": {
        "error": "",
        "response": "No results found."
    },
    "{'address': '987 Pine Lane'}": {
        "error": "",
        "response": "No results found."
    },
    "{'address': '321 Cedar Street'}": {
        "error": "",
        "response": "No results found."
    },
    "{'address': '987 Pine Avenue'}": {
        "error": "",
        "response": "No results found."
    },
    "{'address': '987 Maple Street'}": {
        "error": "",
        "response": "No results found."
    },
    "{'address': '234 Maple Road'}": {
        "error": "",
        "response": {
            "address": "234 Maple Rd, Buffalo, NY 14221, USA",
            "location": {
                "lat": 42.9918586,
                "lng": -78.77899149999999
            },
            "place_id": "EiQyMzQgTWFwbGUgUmQsIEJ1ZmZhbG8sIE5ZIDE0MjIxLCBVU0EiMRIvChQKEgm_kHKox3PTiRFSGC4v3j3uHRDqASoUChIJqXP8mu1z04kRsy32P2BcUD0"
        }
    },
    "{'address': '789 Elm Street'}": {
        "error": "",
        "response": "No results found."
    },
    "{'address': '567 Pine Avenue'}": {
        "error": "",
        "response": "No results found."
    },
    "{'address': 'cities with good infrastructure and connectivity'}": {
        "error": "",
        "response": "No results found."
    },
    "{'address': 'New York, USA'}": {
        "error": "",
        "response": {
            "address": "New York, NY, USA",
            "location": {
                "lat": 40.7127753,
                "lng": -74.0059728
            },
            "place_id": "ChIJOwg_06VPwokRYv534QaPC8g"
        }
    },
    "{'address': 'Aguilares, Argentina'}": {
        "error": "",
        "response": {
            "address": "Aguilares, Tucum\u00e1n, Argentina",
            "location": {
                "lat": -27.4315089,
                "lng": -65.6147162
            },
            "place_id": "ChIJdakXu2fEI5QRtz3w9zwse3w"
        }
    },
    "{'address': 'Singapore'}": {
        "error": "",
        "response": {
            "address": "Singapore",
            "location": {
                "lat": 1.352083,
                "lng": 103.819836
            },
            "place_id": "ChIJdZOLiiMR2jERxPWrUs9peIg"
        }
    },
    "{'address': 'Seoul, South Korea'}": {
        "error": "",
        "response": {
            "address": "Seoul, South Korea",
            "location": {
                "lat": 37.5518911,
                "lng": 126.9917937
            },
            "place_id": "ChIJzzlcLQGifDURm_JbQKHsEX4"
        }
    },
    "{'address': 'Tokyo'}": {
        "error": "",
        "response": {
            "address": "Tokyo, Japan",
            "location": {
                "lat": 35.6761919,
                "lng": 139.6503106
            },
            "place_id": "ChIJ51cu8IcbXWARiRtXIothAS4"
        }
    },
    "{'address': 'Los Angeles, USA'}": {
        "error": "",
        "response": {
            "address": "Los Angeles, CA, USA",
            "location": {
                "lat": 34.0522342,
                "lng": -118.2436849
            },
            "place_id": "ChIJE9on3F3HwoAR9AhGJW_fL-I"
        }
    },
    "{'address': 'Ara e Rexhep Mals, Albania'}": {
        "error": "",
        "response": {
            "address": "Albania",
            "location": {
                "lat": 41.153332,
                "lng": 20.168331
            },
            "place_id": "ChIJLUwnvfM7RRMR7juY1onlfAc"
        }
    },
    "{'address': 'New York, US'}": {
        "error": "",
        "response": {
            "address": "New York, NY, USA",
            "location": {
                "lat": 40.7127753,
                "lng": -74.0059728
            },
            "place_id": "ChIJOwg_06VPwokRYv534QaPC8g"
        }
    },
    "{'address': '2795 Hastings St, Vancouver, BC V5K 1Z8'}": {
        "error": "",
        "response": {
            "address": "2795 E Hastings St, Vancouver, BC V5K 1Z8, Canada",
            "location": {
                "lat": 49.2813458,
                "lng": -123.0470199
            },
            "place_id": "ChIJr9qJ9yBxhlQRVydHPfGaK6U"
        }
    },
    "{'address': 'Abra Pampa, Argentina'}": {
        "error": "",
        "response": {
            "address": "Abra Pampa, Jujuy, Argentina",
            "location": {
                "lat": -22.7226738,
                "lng": -65.69698319999999
            },
            "place_id": "ChIJ8Qx8KUBwBJQRF4IzeuLbL-w"
        }
    },
    "{'address': 'Socotra Island, Yemen'}": {
        "error": "",
        "response": {
            "address": "Socotra, Yemen",
            "location": {
                "lat": 12.4634205,
                "lng": 53.8237385
            },
            "place_id": "ChIJ8UvJKjCjtj0Ra0Ks8N99CoU"
        }
    },
    "{'address': 'Pamukkale, Turkey'}": {
        "error": "",
        "response": {
            "address": "Pamukkale, 20190 Pamukkale/Denizli, T\u00fcrkiye",
            "location": {
                "lat": 37.9136957,
                "lng": 29.1187097
            },
            "place_id": "ChIJL9ogVskTxxQR1vweRV8PGbE"
        }
    },
    "{'address': 'Trolltunga, Norway'}": {
        "error": "",
        "response": {
            "address": "Trolltunga, Ullensvang, Norway",
            "location": {
                "lat": 60.124167,
                "lng": 6.74
            },
            "place_id": "ChIJUSFzG3uZPkYR2I4m3L-SfJs"
        }
    },
    "{'address': 'Raja Ampat, Indonesia'}": {
        "error": "",
        "response": {
            "address": "Raja Ampat Regency, West Papua, Indonesia",
            "location": {
                "lat": -1.032046750338687,
                "lng": 130.5052175718387
            },
            "place_id": "ChIJl3C0zKo-XC0RRN9MTIS9UXg"
        }
    },
    "{'address': 'Plitvice Lakes National Park, Croatia'}": {
        "error": "",
        "response": {
            "address": "Plitvice Lakes National Park, Croatia",
            "location": {
                "lat": 44.8653966,
                "lng": 15.5820119
            },
            "place_id": "ChIJPQ_Z_mxeYUcRcF6aN_iPGgU"
        }
    },
    "{'address': 'Aliabad, Afghanistan'}": {
        "error": "",
        "response": {
            "address": "Aliabad, Afghanistan",
            "location": {
                "lat": 36.4025456,
                "lng": 69.1447081
            },
            "place_id": "ChIJp6EWFMOXzjgRYnqvIBiN-Tk"
        }
    },
    "{'address': 'Alaqahdari Atghar, Afghanistan'}": {
        "error": "",
        "response": {
            "address": "Atghar, Afghanistan",
            "location": {
                "lat": 31.60718049999999,
                "lng": 67.5231713
            },
            "place_id": "ChIJkTfpVKMuKzkRgkN0JLcczZ8"
        }
    },
    "{'address': 'Akat Amnuai, Thailand'}": {
        "error": "",
        "response": {
            "address": "Akat Amnuai District, Sakon Nakhon, Thailand",
            "location": {
                "lat": 17.686931,
                "lng": 103.9608091
            },
            "place_id": "ChIJtx93fsxmOzERQGxgE0G1AgM"
        }
    },
    "{'address': 'offbeat travel destinations'}": {
        "error": "",
        "response": "No results found."
    },
    "{'address': 'Svalbard, Norway'}": {
        "error": "",
        "response": {
            "address": "Svalbard, Svalbard and Jan Mayen",
            "location": {
                "lat": 77.8749725,
                "lng": 20.9751822
            },
            "place_id": "ChIJScCjT9zPoUURdeg1G-dz8ys"
        }
    },
    "{'address': 'Haida Gwaii, Canada'}": {
        "error": "",
        "response": {
            "address": "Haida Gwaii, North Coast, BC, Canada",
            "location": {
                "lat": 53.06451185,
                "lng": -132.1132571
            },
            "place_id": "ChIJAzMGVmJvbFQR673y7geLkuw"
        }
    },
    "{'address': 'Colorado Trailhead address'}": {
        "error": "",
        "response": {
            "address": "Colorado Trail, Colorado, USA",
            "location": {
                "lat": 38.317049,
                "lng": -106.5122368
            },
            "place_id": "ChIJj9o5tx-pPocRsHtULRD6ylA"
        }
    },
    "{'address': 'Trailhead address in Colorado'}": {
        "error": "",
        "response": {
            "address": "Colorado, USA",
            "location": {
                "lat": 39.5500507,
                "lng": -105.7820674
            },
            "place_id": "ChIJt1YYm3QUQIcR_6eQSTGDVMc"
        }
    },
    "{'address': '36.477988, -112.726473'}": {
        "error": "",
        "response": {
            "address": "Unnamed Road, Arizona, USA",
            "location": {
                "lat": 36.476335,
                "lng": -112.7255453
            },
            "place_id": "ChIJm_udO5hWy4ARQGCmCZvTecc"
        }
    },
    "{'address': '2795 BC-7A, Vancouver, BC V5K 1Z8, Canada'}": {
        "error": "",
        "response": {
            "address": "2795 BC-7A, Vancouver, BC V5K 1Z8, Canada",
            "location": {
                "lat": 49.2812974,
                "lng": -123.0469687
            },
            "place_id": "ChIJVaCI9yBxhlQREDIu2QbjwDY"
        }
    },
    "{'address': 'Hill type, Eastern region'}": {
        "error": "",
        "response": "No results found."
    },
    "{'address': 'Airport'}": {
        "error": "",
        "response": "No results found."
    },
    "{'address': 'Airport Avenue'}": {
        "error": "",
        "response": {
            "address": "98000 Miri, Sarawak, Malaysia",
            "location": {
                "lat": 4.3270689,
                "lng": 113.9802913
            },
            "place_id": "ChIJOS6PAYNJHzIR1rhEwhE63wU"
        }
    },
    "{'address': 'Seattle'}": {
        "error": "",
        "response": {
            "address": "Seattle, WA, USA",
            "location": {
                "lat": 47.6062095,
                "lng": -122.3320708
            },
            "place_id": "ChIJVTPokywQkFQRmtVEaUZlJRA"
        }
    },
    "{'address': 'My house, Seattle'}": {
        "error": "",
        "response": {
            "address": "Seattle, WA, USA",
            "location": {
                "lat": 47.6062095,
                "lng": -122.3320708
            },
            "place_id": "ChIJVTPokywQkFQRmtVEaUZlJRA"
        }
    },
    "{'address': 'park'}": {
        "error": "",
        "response": "No results found."
    },
    "{'address': 'San Francisco, CA, USA'}": {
        "error": "",
        "response": {
            "address": "San Francisco, CA, USA",
            "location": {
                "lat": 37.7749295,
                "lng": -122.4194155
            },
            "place_id": "ChIJIQBpAG2ahYAR_6128GcTUEo"
        }
    },
    "{'address': 'Los Angeles, CA, USA'}": {
        "error": "",
        "response": {
            "address": "Los Angeles, CA, USA",
            "location": {
                "lat": 34.0522342,
                "lng": -118.2436849
            },
            "place_id": "ChIJE9on3F3HwoAR9AhGJW_fL-I"
        }
    },
    "{'address': '123 Victoria St, London SW1E 6DE, UK'}": {
        "error": "",
        "response": {
            "address": "123 Victoria St, London SW1E 6DE, UK",
            "location": {
                "lat": 51.4969826,
                "lng": -0.1380638
            },
            "place_id": "ChIJ1YRYkt4EdkgRZ3tRj2_4EPA"
        }
    },
    "{'address': '555 Maple Avenue'}": {
        "error": "",
        "response": {
            "address": "4171 Av. de l'Esplanade, Montr\u00e9al, QC H2W 2S9, Canada",
            "location": {
                "lat": 45.516241,
                "lng": -73.583057
            },
            "place_id": "ChIJ1aKtljIayUwRAPczmjbDnEo"
        }
    },
    "{'address': '789 Research Street'}": {
        "error": "",
        "response": "No results found."
    },
    "{'address': '1001 Park Avenue, New York, NY 10028'}": {
        "error": "",
        "response": {
            "address": "1001 Park Ave, New York, NY 10028, USA",
            "location": {
                "lat": 40.7789265,
                "lng": -73.95777199999999
            },
            "place_id": "ChIJnazrC71YwokRUJ_V4zXPslw"
        }
    },
    "{'address': 'potential venue 1'}": {
        "error": "",
        "response": "No results found."
    },
    "{'address': 'potential venues'}": {
        "error": "",
        "response": "No results found."
    },
    "{'address': '260 Broadway, Brooklyn, NY 10007, USA'}": {
        "error": "",
        "response": {
            "address": "260 Broadway, Brooklyn, NY 11211, USA",
            "location": {
                "lat": 40.7088238,
                "lng": -73.9594705
            },
            "place_id": "ChIJobSLIN5bwokRa6oU5xttwiI"
        }
    },
    "{'address': 'potential venue 2'}": {
        "error": "",
        "response": "No results found."
    },
    "{'address': '253 Public Alley 417, Boston, MA 02116, USA'}": {
        "error": "",
        "response": {
            "address": "253 Public Alley 417, Boston, MA 02116, USA",
            "location": {
                "lat": 42.352204,
                "lng": -71.0824208
            },
            "place_id": "ChIJM18iKAl644kRAbZIesGnGhI"
        }
    },
    "{'address': 'potential venue 3'}": {
        "error": "",
        "response": "No results found."
    },
    "{'address': '1600 Amphitheatre Parkway, Mountain View, CA'}": {
        "error": "",
        "response": "{'address': '1600 Amphitheatre Pkwy, Mountain View, CA 94043, USA', 'location': {'lat': 37.421472, 'lng': -122.0843029}, 'place_id': 'ChIJF4Yf2Ry7j4AR__1AkytDyAE'}"
    },
    "{'address': '1 Infinite Loop, Cupertino, CA'}": {
        "error": "",
        "response": "{'address': 'Infinite Loop 1, 1 Infinite Loop, Cupertino, CA 95014, USA', 'location': {'lat': 37.3318598, 'lng': -122.0302485}, 'place_id': 'ChIJAf9D3La1j4ARuwKZtGjgMXw'}"
    }
}