{
    "{'lat': 36.1699, 'long': '-115.1398'}": {
        "error": "",
        "response": {
            "status": "ok",
            "timestamp": 1688320602780,
            "data": {
                "zipcode": "89101",
                "state_abbr": "NV",
                "latitude": "36.170220",
                "longitude": "-115.12785",
                "city": "Las Vegas",
                "state": "Nevada",
                "distance": 1.0732721577719269
            }
        }
    },
    "{'lat': 32.7157, 'long': '-117.1611'}": {
        "error": "",
        "response": {
            "status": "ok",
            "timestamp": 1688320611348,
            "data": {
                "zipcode": "92101",
                "state_abbr": "CA",
                "latitude": "32.719601",
                "longitude": "-117.16246",
                "city": "San Diego",
                "state": "California",
                "distance": 0.45204614062576315
            }
        }
    },
    "{'lat': 34.0522, 'long': '-118.2437'}": {
        "error": "",
        "response": {
            "status": "ok",
            "timestamp": 1688320620859,
            "data": {
                "zipcode": "90013",
                "state_abbr": "CA",
                "latitude": "34.044662",
                "longitude": "-118.24255",
                "city": "Los Angeles",
                "state": "California",
                "distance": 0.8448573094229381
            }
        }
    },
    "{'lat': 37.7749, 'long': '-122.4194'}": {
        "error": "",
        "response": "{'status': 'ok', 'timestamp': 1688325523251, 'data': {'zipcode': '94102', 'state_abbr': 'CA', 'latitude': '37.779329', 'longitude': '-122.41915', 'city': 'San Francisco', 'state': 'California', 'distance': 0.49297222956669295}}"
    },
    "{'lat': 39.9526, 'long': '-75.1652'}": {
        "error": "",
        "response": {
            "status": "ok",
            "timestamp": 1688325517856,
            "data": {
                "zipcode": "19102",
                "state_abbr": "PA",
                "latitude": "39.952962",
                "longitude": "-75.16558",
                "city": "Philadelphia",
                "state": "Pennsylvania",
                "distance": 0.05166659760862947
            }
        }
    },
    "{'lat': 51.5074, 'long': '0.1278'}": {
        "error": "",
        "response": {
            "status": "ok",
            "timestamp": 1688394186244,
            "data": {
                "zipcode": "04785",
                "state_abbr": "ME",
                "latitude": "47.146850",
                "longitude": "-67.94718",
                "city": "Van Buren",
                "state": "Maine",
                "distance": 4776.725553782872
            }
        }
    },
    "{'lat': 40.7128, 'long': '-74.0060'}": {
        "error": "",
        "response": {
            "status": "ok",
            "timestamp": 1688394213857,
            "data": {
                "zipcode": "10279",
                "state_abbr": "NY",
                "latitude": "40.713062",
                "longitude": "-74.00857",
                "city": "New York",
                "state": "New York",
                "distance": 0.21856106206176334
            }
        }
    },
    "{'lat': 37.7749, 'long': '122.4194'}": {
        "error": "",
        "response": {
            "status": "ok",
            "timestamp": 1688448498249,
            "data": {
                "zipcode": "99546",
                "state_abbr": "AK",
                "latitude": "51.879570",
                "longitude": "-176.63675",
                "city": "Adak",
                "state": "Alaska",
                "distance": 4896.722992026066
            }
        }
    }
}