{
    "{'lng': -123.1216, 'lat': 49.2827, 'radius': 500, 'type': 'restaurant'}": {
        "error": "",
        "response": {
            "status": "OK",
            "results": [
                {
                    "location": {
                        "lat": "49.2826460",
                        "lng": "-123.1218090"
                    },
                    "name": "Spring by Alan Chung Hung",
                    "address": "Vancouver, British Columbia, V5K 0A4",
                    "phone": "",
                    "distanceMeter": "16.31"
                },
                {
                    "location": {
                        "lat": "49.2829970",
                        "lng": "-123.1216190"
                    },
                    "name": "Bellagio Cafe",
                    "address": "773 Hornby St, Vancouver, British Columbia, V6Z 1S2",
                    "phone": "(604) 408-1281",
                    "distanceMeter": "33.05"
                },
                {
                    "location": {
                        "lat": "49.2830100",
                        "lng": "-123.1208360"
                    },
                    "name": "1931 Gallery Bistro",
                    "address": "750 Hornby St, Vancouver, British Columbia, V6Z 2H7",
                    "phone": "(604) 662-4831",
                    "distanceMeter": "65.26"
                },
                {
                    "location": {
                        "lat": "49.2830010",
                        "lng": "-123.1208120"
                    },
                    "name": "Mr Shawarama",
                    "address": "750 Hornby St, Vancouver, British Columbia, V6Z 2H7",
                    "phone": "(604) 569-1644",
                    "distanceMeter": "66.24"
                },
                {
                    "location": {
                        "lat": "49.2830310",
                        "lng": "-123.1208200"
                    },
                    "name": "Gallery Cafe",
                    "address": "750 Hornby St, Vancouver, British Columbia, V6Z 2H7",
                    "phone": "(604) 688-2233",
                    "distanceMeter": "67.50"
                },
                {
                    "location": {
                        "lat": "49.2828870",
                        "lng": "-123.1226430"
                    },
                    "name": "Roaming Dragon",
                    "address": "Vancouver, British Columbia, V6B",
                    "phone": "(604) 639-3335",
                    "distanceMeter": "78.46"
                },
                {
                    "location": {
                        "lat": "49.2823390",
                        "lng": "-123.1227800"
                    },
                    "name": "Bacchus Restaurant & Lounge",
                    "address": "845 Hornby St, Vancouver, British Columbia, V6Z 1T9",
                    "phone": "(604) 608-5319",
                    "distanceMeter": "94.54"
                },
                {
                    "location": {
                        "lat": "49.2820330",
                        "lng": "-123.1207890"
                    },
                    "name": "TacoFino",
                    "address": "Robson St, Vancouver, British Columbia, V6B",
                    "phone": "(604) 253-8226",
                    "distanceMeter": "94.66"
                },
                {
                    "location": {
                        "lat": "49.2830010",
                        "lng": "-123.1203060"
                    },
                    "name": "Marimba",
                    "address": "850 West Georgia St, Vancouver, British Columbia, V6Z 2H7",
                    "phone": "(604) 440-0780",
                    "distanceMeter": "99.65"
                },
                {
                    "location": {
                        "lat": "49.2826210",
                        "lng": "-123.1231910"
                    },
                    "name": "Joey Restaurants",
                    "address": "820 Burrard St, Vancouver, British Columbia, V6Z 1X9",
                    "phone": "(604) 683-5639",
                    "distanceMeter": "115.74"
                },
                {
                    "location": {
                        "lat": "49.2826090",
                        "lng": "-123.1232100"
                    },
                    "name": "JOEY Burrard",
                    "address": "820 Burrard St, Vancouver, British Columbia, V6Z 1X9",
                    "phone": "(604) 683-5639",
                    "distanceMeter": "117.22"
                },
                {
                    "location": {
                        "lat": "49.2817580",
                        "lng": "-123.1207080"
                    },
                    "name": "Eat Chicken Wraps",
                    "address": "800 Howe St, Vancouver, British Columbia, V6Z 1A1",
                    "phone": "(778) 319-4888",
                    "distanceMeter": "123.12"
                },
                {
                    "location": {
                        "lat": "49.2817530",
                        "lng": "-123.1207010"
                    },
                    "name": "A&W (Canada)",
                    "address": "778 Robson St, Vancouver, British Columbia, V6Z 1A1",
                    "phone": "(604) 569-2479",
                    "distanceMeter": "123.86"
                },
                {
                    "location": {
                        "lat": "49.2837680",
                        "lng": "-123.1210410"
                    },
                    "name": "Griffins Restaurant",
                    "address": "900 Georgia St W, Vancouver, British Columbia, V6C 2W6",
                    "phone": "(604) 662-1900",
                    "distanceMeter": "125.49"
                },
                {
                    "location": {
                        "lat": "49.2824630",
                        "lng": "-123.1234380"
                    },
                    "name": "Francescos Ristorante Italia",
                    "address": "860 Burrard St, Vancouver, British Columbia, V6Z 1X9",
                    "phone": "(604) 685-7770",
                    "distanceMeter": "135.90"
                },
                {
                    "location": {
                        "lat": "49.2818930",
                        "lng": "-123.1199160"
                    },
                    "name": "Bistro Verde",
                    "address": "799 Robson St, Vancouver, British Columbia, V7Y 1L1",
                    "phone": "(604) 699-2100",
                    "distanceMeter": "151.57"
                },
                {
                    "location": {
                        "lat": "49.2839900",
                        "lng": "-123.1223130"
                    },
                    "name": "Shabusen Yakiniku House",
                    "address": "755 Burrard St, Vancouver, British Columbia, V6Z 1X6",
                    "phone": "(604) 669-3883",
                    "distanceMeter": "152.48"
                },
                {
                    "location": {
                        "lat": "49.2830590",
                        "lng": "-123.1239290"
                    },
                    "name": "Boulevard Kitchen & Oyster Bar",
                    "address": "845 Burrard St, Vancouver, British Columbia, V6Z 2K6",
                    "phone": "(604) 642-2900",
                    "distanceMeter": "173.59"
                },
                {
                    "location": {
                        "lat": "49.2821590",
                        "lng": "-123.1239340"
                    },
                    "name": "Ballyhoo",
                    "address": "888 Burrard St, Vancouver, British Columbia, V6Z 1X9",
                    "phone": "(604) 423-2771",
                    "distanceMeter": "179.67"
                },
                {
                    "location": {
                        "lat": "49.2837620",
                        "lng": "-123.1195840"
                    },
                    "name": "Sciue Italian Bakery Caffe",
                    "address": "885 West Georgia St, Vancouver, British Columbia, V6C 3E8",
                    "phone": "(604) 974-8815",
                    "distanceMeter": "187.96"
                },
                {
                    "location": {
                        "lat": "49.2837860",
                        "lng": "-123.1195890"
                    },
                    "name": "Daybreak Deli",
                    "address": "885 West Georgia St, Vancouver, British Columbia, V6C 3E8",
                    "phone": "(604) 684-3235",
                    "distanceMeter": "189.37"
                },
                {
                    "location": {
                        "lat": "49.2834440",
                        "lng": "-123.1192440"
                    },
                    "name": "Hawksworth Restaurant",
                    "address": "801 West Georgia St, Vancouver, British Columbia, V6C 1P7",
                    "phone": "(604) 673-7000",
                    "distanceMeter": "189.86"
                },
                {
                    "location": {
                        "lat": "49.2834410",
                        "lng": "-123.1192130"
                    },
                    "name": "Reflections The Garden Terrace",
                    "address": "801 West Georgia St, Vancouver, British Columbia, V6C 1P7",
                    "phone": "(604) 673-7043",
                    "distanceMeter": "191.75"
                },
                {
                    "location": {
                        "lat": "49.2816150",
                        "lng": "-123.1236870"
                    },
                    "name": "Earls Restaurants",
                    "address": "905 Hornby St, Vancouver, British Columbia, V6Z 1V3",
                    "phone": "(604) 682-6700",
                    "distanceMeter": "193.58"
                },
                {
                    "location": {
                        "lat": "49.2840290",
                        "lng": "-123.1233510"
                    },
                    "name": "Cafe De Medici",
                    "address": "1025 Robson St, Vancouver, British Columbia, V6E 1A9",
                    "phone": "(604) 669-9322",
                    "distanceMeter": "194.86"
                },
                {
                    "location": {
                        "lat": "49.2842020",
                        "lng": "-123.1200170"
                    },
                    "name": "Herbs and Spices Cafe",
                    "address": "925 West Georgia St, Vancouver, British Columbia, V6C 3L2",
                    "phone": "(604) 681-4325",
                    "distanceMeter": "202.68"
                },
                {
                    "location": {
                        "lat": "49.2819150",
                        "lng": "-123.1241340"
                    },
                    "name": "Kamei Baru",
                    "address": "990 Smithe St, Vancouver, British Columbia, V6Z 0A4",
                    "phone": "(604) 559-8588",
                    "distanceMeter": "203.48"
                },
                {
                    "location": {
                        "lat": "49.2817930",
                        "lng": "-123.1241140"
                    },
                    "name": "Pacifico Pizzeria & Ristorante",
                    "address": "970 Smithe St, Vancouver, British Columbia, V6Z 0A4",
                    "phone": "(604) 408-0808",
                    "distanceMeter": "208.39"
                },
                {
                    "location": {
                        "lat": "49.2844480",
                        "lng": "-123.1230170"
                    },
                    "name": "The Roof",
                    "address": "1032 Alberni St, Vancouver, British Columbia, V6E 1A3",
                    "phone": "(604) 637-0777",
                    "distanceMeter": "219.87"
                },
                {
                    "location": {
                        "lat": "49.2808670",
                        "lng": "-123.1203270"
                    },
                    "name": "Falafel House",
                    "address": "836 Granville St, Vancouver, British Columbia, V6Z 1K3",
                    "phone": "(604) 806-0045",
                    "distanceMeter": "223.76"
                },
                {
                    "location": {
                        "lat": "49.2810970",
                        "lng": "-123.1196590"
                    },
                    "name": "The Lennox Pub",
                    "address": "800 Granville St, Vancouver, British Columbia, V6B",
                    "phone": "(604) 408-0881",
                    "distanceMeter": "227.14"
                },
                {
                    "location": {
                        "lat": "49.2819120",
                        "lng": "-123.1186050"
                    },
                    "name": "Salad Loop Enterprises",
                    "address": "752 Granville St, Vancouver, British Columbia, V6B",
                    "phone": "(604) 694-1993",
                    "distanceMeter": "234.25"
                },
                {
                    "location": {
                        "lat": "49.2845450",
                        "lng": "-123.1231720"
                    },
                    "name": "Kobe Japanese Steakhouse",
                    "address": "1042 Alberni St, Vancouver, British Columbia, V6E 1A3",
                    "phone": "(604) 684-2451",
                    "distanceMeter": "234.71"
                },
                {
                    "location": {
                        "lat": "49.2845800",
                        "lng": "-123.1232710"
                    },
                    "name": "Eh Restaurant",
                    "address": "1050 Alberni St, Vancouver, British Columbia, V6E 1A3",
                    "phone": "(604) 568-9915",
                    "distanceMeter": "241.64"
                },
                {
                    "location": {
                        "lat": "49.2825030",
                        "lng": "-123.1181540"
                    },
                    "name": "Montreal Steamies",
                    "address": "Granville St, Vancouver, British Columbia, V6B",
                    "phone": "(604) 684-3304",
                    "distanceMeter": "250.92"
                },
                {
                    "location": {
                        "lat": "49.2804710",
                        "lng": "-123.1206300"
                    },
                    "name": "The Bottleneck",
                    "address": "870 Granville St, Vancouver, British Columbia, V6Z 1L1",
                    "phone": "(604) 739-4540",
                    "distanceMeter": "257.65"
                },
                {
                    "location": {
                        "lat": "49.2847460",
                        "lng": "-123.1235380"
                    },
                    "name": "Super Wok",
                    "address": "1070 Alberni St, Vancouver, British Columbia, V6E 1A3",
                    "phone": "(778) 371-4493",
                    "distanceMeter": "267.43"
                },
                {
                    "location": {
                        "lat": "49.2810200",
                        "lng": "-123.1189600"
                    },
                    "name": "Aladdin Cafe",
                    "address": "615 Robson St, Vancouver, British Columbia, V6B 5J3",
                    "phone": "(778) 881-7916",
                    "distanceMeter": "267.52"
                },
                {
                    "location": {
                        "lat": "49.2802970",
                        "lng": "-123.1219670"
                    },
                    "name": "Cavo Bar and Kitchen",
                    "address": "911 Granville St, Vancouver, British Columbia, V6Z 1L3",
                    "phone": "(604) 568-3454",
                    "distanceMeter": "268.52"
                },
                {
                    "location": {
                        "lat": "49.2806830",
                        "lng": "-123.1236640"
                    },
                    "name": "Law Courts Inn Restaurant",
                    "address": "800 Smithe St, Vancouver, British Columbia, V6Z 2E1",
                    "phone": "(604) 684-8818",
                    "distanceMeter": "269.66"
                },
                {
                    "location": {
                        "lat": "49.2825100",
                        "lng": "-123.1253150"
                    },
                    "name": "Le Crocodile Restaurant",
                    "address": "909 Burrard St, Vancouver, British Columbia, V6Z 2N2",
                    "phone": "(604) 669-4298",
                    "distanceMeter": "270.30"
                },
                {
                    "location": {
                        "lat": "49.2809680",
                        "lng": "-123.1189390"
                    },
                    "name": "McGreens Bistro",
                    "address": "615 Robson St, Vancouver, British Columbia, V6B 5J3",
                    "phone": "(604) 681-7334",
                    "distanceMeter": "272.67"
                },
                {
                    "location": {
                        "lat": "49.2803630",
                        "lng": "-123.1228400"
                    },
                    "name": "Alliance For Arts & Culture",
                    "address": "938 Howe St, Vancouver, British Columbia, V6Z 1N9",
                    "phone": "(604) 681-3535",
                    "distanceMeter": "274.99"
                },
                {
                    "location": {
                        "lat": "49.2847030",
                        "lng": "-123.1193650"
                    },
                    "name": "Hy's Steakhouse & Cocktail Bar",
                    "address": "637 Hornby St, Vancouver, British Columbia, V6C 2G3",
                    "phone": "(604) 683-7671",
                    "distanceMeter": "275.48"
                },
                {
                    "location": {
                        "lat": "49.2830930",
                        "lng": "-123.1178480"
                    },
                    "name": "A&W (Canada)",
                    "address": "700 W Georgia Streetpacific Centre Ct, Vancouver, British Columbia, V6B",
                    "phone": "(604) 689-1133",
                    "distanceMeter": "275.64"
                },
                {
                    "location": {
                        "lat": "49.2845250",
                        "lng": "-123.1242070"
                    },
                    "name": "Cafe Il Nido",
                    "address": "780 Thurlow St, Vancouver, British Columbia, V6E 1V8",
                    "phone": "(604) 685-6436",
                    "distanceMeter": "277.38"
                },
                {
                    "location": {
                        "lat": "49.2805440",
                        "lng": "-123.1196680"
                    },
                    "name": "Dunn's Famous",
                    "address": "827 Seymour St, Vancouver, British Columbia, V6B 3L4",
                    "phone": "(604) 682-8938",
                    "distanceMeter": "277.69"
                },
                {
                    "location": {
                        "lat": "49.2851020",
                        "lng": "-123.1205340"
                    },
                    "name": "Mosaic Bar & Grille",
                    "address": "655 Burrard St, Vancouver, British Columbia, V6C 2R7",
                    "phone": "(604) 639-4770",
                    "distanceMeter": "278.06"
                },
                {
                    "location": {
                        "lat": "49.2810990",
                        "lng": "-123.1186410"
                    },
                    "name": "Ryuu Japanese Kitchen",
                    "address": "757 Seymour St, Vancouver, British Columbia, V6B 5J3",
                    "phone": "(604) 233-0306",
                    "distanceMeter": "278.86"
                },
                {
                    "location": {
                        "lat": "49.2805770",
                        "lng": "-123.1195300"
                    },
                    "name": "Chaiyan Khaikaew",
                    "address": "809 Seymour St, Vancouver, British Columbia, V6B 3L4",
                    "phone": "(604) 682-7000",
                    "distanceMeter": "279.77"
                }
            ]
        }
    },
    "{'lng': -123.1207, 'lat': 49.2827, 'type': 'restaurant', 'radius': 500}": {
        "error": "",
        "response": {
            "status": "OK",
            "results": [
                {
                    "location": {
                        "lat": "49.2830010",
                        "lng": "-123.1208120"
                    },
                    "name": "Mr Shawarama",
                    "address": "750 Hornby St, Vancouver, British Columbia, V6Z 2H7",
                    "phone": "(604) 569-1644",
                    "distanceMeter": "34.44"
                },
                {
                    "location": {
                        "lat": "49.2830100",
                        "lng": "-123.1208360"
                    },
                    "name": "1931 Gallery Bistro",
                    "address": "750 Hornby St, Vancouver, British Columbia, V6Z 2H7",
                    "phone": "(604) 662-4831",
                    "distanceMeter": "35.85"
                },
                {
                    "location": {
                        "lat": "49.2830310",
                        "lng": "-123.1208200"
                    },
                    "name": "Gallery Cafe",
                    "address": "750 Hornby St, Vancouver, British Columbia, V6Z 2H7",
                    "phone": "(604) 688-2233",
                    "distanceMeter": "37.82"
                },
                {
                    "location": {
                        "lat": "49.2830010",
                        "lng": "-123.1203060"
                    },
                    "name": "Marimba",
                    "address": "850 West Georgia St, Vancouver, British Columbia, V6Z 2H7",
                    "phone": "(604) 440-0780",
                    "distanceMeter": "44.01"
                },
                {
                    "location": {
                        "lat": "49.2829970",
                        "lng": "-123.1216190"
                    },
                    "name": "Bellagio Cafe",
                    "address": "773 Hornby St, Vancouver, British Columbia, V6Z 1S2",
                    "phone": "(604) 408-1281",
                    "distanceMeter": "74.39"
                },
                {
                    "location": {
                        "lat": "49.2820330",
                        "lng": "-123.1207890"
                    },
                    "name": "TacoFino",
                    "address": "Robson St, Vancouver, British Columbia, V6B",
                    "phone": "(604) 253-8226",
                    "distanceMeter": "74.45"
                },
                {
                    "location": {
                        "lat": "49.2826460",
                        "lng": "-123.1218090"
                    },
                    "name": "Spring by Alan Chung Hung",
                    "address": "Vancouver, British Columbia, V5K 0A4",
                    "phone": "",
                    "distanceMeter": "80.67"
                },
                {
                    "location": {
                        "lat": "49.2817580",
                        "lng": "-123.1207080"
                    },
                    "name": "Eat Chicken Wraps",
                    "address": "800 Howe St, Vancouver, British Columbia, V6Z 1A1",
                    "phone": "(778) 319-4888",
                    "distanceMeter": "104.75"
                },
                {
                    "location": {
                        "lat": "49.2817530",
                        "lng": "-123.1207010"
                    },
                    "name": "A&W (Canada)",
                    "address": "778 Robson St, Vancouver, British Columbia, V6Z 1A1",
                    "phone": "(604) 569-2479",
                    "distanceMeter": "105.30"
                },
                {
                    "location": {
                        "lat": "49.2818930",
                        "lng": "-123.1199160"
                    },
                    "name": "Bistro Verde",
                    "address": "799 Robson St, Vancouver, British Columbia, V7Y 1L1",
                    "phone": "(604) 699-2100",
                    "distanceMeter": "106.24"
                },
                {
                    "location": {
                        "lat": "49.2837680",
                        "lng": "-123.1210410"
                    },
                    "name": "Griffins Restaurant",
                    "address": "900 Georgia St W, Vancouver, British Columbia, V6C 2W6",
                    "phone": "(604) 662-1900",
                    "distanceMeter": "121.30"
                },
                {
                    "location": {
                        "lat": "49.2834440",
                        "lng": "-123.1192440"
                    },
                    "name": "Hawksworth Restaurant",
                    "address": "801 West Georgia St, Vancouver, British Columbia, V6C 1P7",
                    "phone": "(604) 673-7000",
                    "distanceMeter": "134.16"
                },
                {
                    "location": {
                        "lat": "49.2834410",
                        "lng": "-123.1192130"
                    },
                    "name": "Reflections The Garden Terrace",
                    "address": "801 West Georgia St, Vancouver, British Columbia, V6C 1P7",
                    "phone": "(604) 673-7043",
                    "distanceMeter": "135.73"
                },
                {
                    "location": {
                        "lat": "49.2828870",
                        "lng": "-123.1226430"
                    },
                    "name": "Roaming Dragon",
                    "address": "Vancouver, British Columbia, V6B",
                    "phone": "(604) 639-3335",
                    "distanceMeter": "142.46"
                },
                {
                    "location": {
                        "lat": "49.2837620",
                        "lng": "-123.1195840"
                    },
                    "name": "Sciue Italian Bakery Caffe",
                    "address": "885 West Georgia St, Vancouver, British Columbia, V6C 3E8",
                    "phone": "(604) 974-8815",
                    "distanceMeter": "143.17"
                },
                {
                    "location": {
                        "lat": "49.2837860",
                        "lng": "-123.1195890"
                    },
                    "name": "Daybreak Deli",
                    "address": "885 West Georgia St, Vancouver, British Columbia, V6C 3E8",
                    "phone": "(604) 684-3235",
                    "distanceMeter": "145.18"
                },
                {
                    "location": {
                        "lat": "49.2823390",
                        "lng": "-123.1227800"
                    },
                    "name": "Bacchus Restaurant & Lounge",
                    "address": "845 Hornby St, Vancouver, British Columbia, V6Z 1T9",
                    "phone": "(604) 608-5319",
                    "distanceMeter": "156.12"
                },
                {
                    "location": {
                        "lat": "49.2842020",
                        "lng": "-123.1200170"
                    },
                    "name": "Herbs and Spices Cafe",
                    "address": "925 West Georgia St, Vancouver, British Columbia, V6C 3L2",
                    "phone": "(604) 681-4325",
                    "distanceMeter": "174.21"
                },
                {
                    "location": {
                        "lat": "49.2819120",
                        "lng": "-123.1186050"
                    },
                    "name": "Salad Loop Enterprises",
                    "address": "752 Granville St, Vancouver, British Columbia, V6B",
                    "phone": "(604) 694-1993",
                    "distanceMeter": "175.41"
                },
                {
                    "location": {
                        "lat": "49.2826210",
                        "lng": "-123.1231910"
                    },
                    "name": "Joey Restaurants",
                    "address": "820 Burrard St, Vancouver, British Columbia, V6Z 1X9",
                    "phone": "(604) 683-5639",
                    "distanceMeter": "180.90"
                },
                {
                    "location": {
                        "lat": "49.2826090",
                        "lng": "-123.1232100"
                    },
                    "name": "JOEY Burrard",
                    "address": "820 Burrard St, Vancouver, British Columbia, V6Z 1X9",
                    "phone": "(604) 683-5639",
                    "distanceMeter": "182.35"
                },
                {
                    "location": {
                        "lat": "49.2839900",
                        "lng": "-123.1223130"
                    },
                    "name": "Shabusen Yakiniku House",
                    "address": "755 Burrard St, Vancouver, British Columbia, V6Z 1X6",
                    "phone": "(604) 669-3883",
                    "distanceMeter": "185.11"
                },
                {
                    "location": {
                        "lat": "49.2825030",
                        "lng": "-123.1181540"
                    },
                    "name": "Montreal Steamies",
                    "address": "Granville St, Vancouver, British Columbia, V6B",
                    "phone": "(604) 684-3304",
                    "distanceMeter": "185.97"
                },
                {
                    "location": {
                        "lat": "49.2810970",
                        "lng": "-123.1196590"
                    },
                    "name": "The Lennox Pub",
                    "address": "800 Granville St, Vancouver, British Columbia, V6B",
                    "phone": "(604) 408-0881",
                    "distanceMeter": "193.58"
                },
                {
                    "location": {
                        "lat": "49.2824630",
                        "lng": "-123.1234380"
                    },
                    "name": "Francescos Ristorante Italia",
                    "address": "860 Burrard St, Vancouver, British Columbia, V6Z 1X9",
                    "phone": "(604) 685-7770",
                    "distanceMeter": "200.34"
                },
                {
                    "location": {
                        "lat": "49.2808670",
                        "lng": "-123.1203270"
                    },
                    "name": "Falafel House",
                    "address": "836 Granville St, Vancouver, British Columbia, V6Z 1K3",
                    "phone": "(604) 806-0045",
                    "distanceMeter": "205.61"
                },
                {
                    "location": {
                        "lat": "49.2830930",
                        "lng": "-123.1178480"
                    },
                    "name": "A&W (Canada)",
                    "address": "700 W Georgia Streetpacific Centre Ct, Vancouver, British Columbia, V6B",
                    "phone": "(604) 689-1133",
                    "distanceMeter": "211.44"
                },
                {
                    "location": {
                        "lat": "49.2810200",
                        "lng": "-123.1189600"
                    },
                    "name": "Aladdin Cafe",
                    "address": "615 Robson St, Vancouver, British Columbia, V6B 5J3",
                    "phone": "(778) 881-7916",
                    "distanceMeter": "225.45"
                },
                {
                    "location": {
                        "lat": "49.2809680",
                        "lng": "-123.1189390"
                    },
                    "name": "McGreens Bistro",
                    "address": "615 Robson St, Vancouver, British Columbia, V6B 5J3",
                    "phone": "(604) 681-7334",
                    "distanceMeter": "231.10"
                },
                {
                    "location": {
                        "lat": "49.2810990",
                        "lng": "-123.1186410"
                    },
                    "name": "Ryuu Japanese Kitchen",
                    "address": "757 Seymour St, Vancouver, British Columbia, V6B 5J3",
                    "phone": "(604) 233-0306",
                    "distanceMeter": "232.38"
                },
                {
                    "location": {
                        "lat": "49.2830590",
                        "lng": "-123.1239290"
                    },
                    "name": "Boulevard Kitchen & Oyster Bar",
                    "address": "845 Burrard St, Vancouver, British Columbia, V6Z 2K6",
                    "phone": "(604) 642-2900",
                    "distanceMeter": "237.59"
                },
                {
                    "location": {
                        "lat": "49.2834670",
                        "lng": "-123.1176300"
                    },
                    "name": "Edo Japan",
                    "address": "#Fc07 W Cf Pacific Ctr, Vancouver, British Columbia, V6B",
                    "phone": "(604) 428-9818",
                    "distanceMeter": "238.46"
                },
                {
                    "location": {
                        "lat": "49.2821590",
                        "lng": "-123.1239340"
                    },
                    "name": "Ballyhoo",
                    "address": "888 Burrard St, Vancouver, British Columbia, V6Z 1X9",
                    "phone": "(604) 423-2771",
                    "distanceMeter": "242.17"
                },
                {
                    "location": {
                        "lat": "49.2840290",
                        "lng": "-123.1233510"
                    },
                    "name": "Cafe De Medici",
                    "address": "1025 Robson St, Vancouver, British Columbia, V6E 1A9",
                    "phone": "(604) 669-9322",
                    "distanceMeter": "242.52"
                },
                {
                    "location": {
                        "lat": "49.2847030",
                        "lng": "-123.1193650"
                    },
                    "name": "Hy's Steakhouse & Cocktail Bar",
                    "address": "637 Hornby St, Vancouver, British Columbia, V6C 2G3",
                    "phone": "(604) 683-7671",
                    "distanceMeter": "242.86"
                },
                {
                    "location": {
                        "lat": "49.2835190",
                        "lng": "-123.1175320"
                    },
                    "name": "YEW Seafood Bar",
                    "address": "791 West Georgia St, Vancouver, British Columbia, V6B",
                    "phone": "(604) 692-4939",
                    "distanceMeter": "247.18"
                },
                {
                    "location": {
                        "lat": "49.2804710",
                        "lng": "-123.1206300"
                    },
                    "name": "The Bottleneck",
                    "address": "870 Granville St, Vancouver, British Columbia, V6Z 1L1",
                    "phone": "(604) 739-4540",
                    "distanceMeter": "247.91"
                },
                {
                    "location": {
                        "lat": "49.2816150",
                        "lng": "-123.1236870"
                    },
                    "name": "Earls Restaurants",
                    "address": "905 Hornby St, Vancouver, British Columbia, V6Z 1V3",
                    "phone": "(604) 682-6700",
                    "distanceMeter": "247.99"
                },
                {
                    "location": {
                        "lat": "49.2805770",
                        "lng": "-123.1195300"
                    },
                    "name": "Chaiyan Khaikaew",
                    "address": "809 Seymour St, Vancouver, British Columbia, V6B 3L4",
                    "phone": "(604) 682-7000",
                    "distanceMeter": "250.86"
                },
                {
                    "location": {
                        "lat": "49.2805440",
                        "lng": "-123.1196680"
                    },
                    "name": "Dunn's Famous",
                    "address": "827 Seymour St, Vancouver, British Columbia, V6B 3L4",
                    "phone": "(604) 682-8938",
                    "distanceMeter": "251.15"
                },
                {
                    "location": {
                        "lat": "49.2844480",
                        "lng": "-123.1230170"
                    },
                    "name": "The Roof",
                    "address": "1032 Alberni St, Vancouver, British Columbia, V6E 1A3",
                    "phone": "(604) 637-0777",
                    "distanceMeter": "256.95"
                },
                {
                    "location": {
                        "lat": "49.2819150",
                        "lng": "-123.1241340"
                    },
                    "name": "Kamei Baru",
                    "address": "990 Smithe St, Vancouver, British Columbia, V6Z 0A4",
                    "phone": "(604) 559-8588",
                    "distanceMeter": "263.94"
                },
                {
                    "location": {
                        "lat": "49.2851020",
                        "lng": "-123.1205340"
                    },
                    "name": "Mosaic Bar & Grille",
                    "address": "655 Burrard St, Vancouver, British Columbia, V6C 2R7",
                    "phone": "(604) 639-4770",
                    "distanceMeter": "267.36"
                },
                {
                    "location": {
                        "lat": "49.2817930",
                        "lng": "-123.1241140"
                    },
                    "name": "Pacifico Pizzeria & Ristorante",
                    "address": "970 Smithe St, Vancouver, British Columbia, V6Z 0A4",
                    "phone": "(604) 408-0808",
                    "distanceMeter": "267.39"
                },
                {
                    "location": {
                        "lat": "49.2845450",
                        "lng": "-123.1231720"
                    },
                    "name": "Kobe Japanese Steakhouse",
                    "address": "1042 Alberni St, Vancouver, British Columbia, V6E 1A3",
                    "phone": "(604) 684-2451",
                    "distanceMeter": "272.47"
                },
                {
                    "location": {
                        "lat": "49.2845800",
                        "lng": "-123.1232710"
                    },
                    "name": "Eh Restaurant",
                    "address": "1050 Alberni St, Vancouver, British Columbia, V6E 1A3",
                    "phone": "(604) 568-9915",
                    "distanceMeter": "280.14"
                },
                {
                    "location": {
                        "lat": "49.2852290",
                        "lng": "-123.1203530"
                    },
                    "name": "Grain Tasting Bar",
                    "address": "655 Burrard St, Vancouver, British Columbia, V6C 2R7",
                    "phone": "(604) 639-4768",
                    "distanceMeter": "282.34"
                },
                {
                    "location": {
                        "lat": "49.2802970",
                        "lng": "-123.1219670"
                    },
                    "name": "Cavo Bar and Kitchen",
                    "address": "911 Granville St, Vancouver, British Columbia, V6Z 1L3",
                    "phone": "(604) 568-3454",
                    "distanceMeter": "282.57"
                },
                {
                    "location": {
                        "lat": "49.2804420",
                        "lng": "-123.1188620"
                    },
                    "name": "E Mo Restaurant",
                    "address": "590 Robson St, Vancouver, British Columbia, V6B 2B7",
                    "phone": "(604) 687-2559",
                    "distanceMeter": "284.28"
                },
                {
                    "location": {
                        "lat": "49.2852240",
                        "lng": "-123.1215100"
                    },
                    "name": "Teriyaki Experience",
                    "address": "1055 West Georgia St, Vancouver, British Columbia, V6E 0B6",
                    "phone": "",
                    "distanceMeter": "286.74"
                }
            ]
        }
    },
    "{'lng': -123.1207, 'lat': 49.2827, 'radius': 500, 'type': 'park'}": {
        "error": "",
        "response": {
            "status": "OK",
            "results": [
                {
                    "location": {
                        "lat": "49.2818300",
                        "lng": "-123.1211100"
                    },
                    "name": "Robson Square",
                    "address": "Howe St, Vancouver, British Columbia, V6Z",
                    "phone": "",
                    "distanceMeter": "101.21"
                },
                {
                    "location": {
                        "lat": "49.2860100",
                        "lng": "-123.1208600"
                    },
                    "name": "Art Phillips Park",
                    "address": "Dunsmuir St, Vancouver, British Columbia, V6E",
                    "phone": "",
                    "distanceMeter": "368.24"
                }
            ]
        }
    },
    "{'lat': 49.2803703, 'lng': -122.419445, 'radius': 5000}": {
        "error": "",
        "response": {
            "status": "ZERO_RESULTS",
            "message": "No results found. Try a larger radius.",
            "results": []
        }
    },
    "{'lat': 37.7749, 'lng': -122.4194, 'radius': 5000, 'type': 'park'}": {
        "error": "",
        "response": {
            "status": "OK",
            "results": [
                {
                    "location": {
                        "lat": "37.7764300",
                        "lng": "-122.4246000"
                    },
                    "name": "Patricia's Green",
                    "address": "Octavia Blvd, San Francisco, California, 94102",
                    "phone": "(415) 831-2750",
                    "distanceMeter": "487.67"
                },
                {
                    "location": {
                        "lat": "37.7732600",
                        "lng": "-122.4252100"
                    },
                    "name": "Page & Laguna Mini Park",
                    "address": "Rose St, San Francisco, California, 94102",
                    "phone": "",
                    "distanceMeter": "542.24"
                },
                {
                    "location": {
                        "lat": "37.7788200",
                        "lng": "-122.4205300"
                    },
                    "name": "Memorial Court",
                    "address": "San Francisco, California",
                    "phone": "",
                    "distanceMeter": "447.06"
                },
                {
                    "location": {
                        "lat": "37.7797200",
                        "lng": "-122.4168100"
                    },
                    "name": "Civic Center Plaza",
                    "address": "Larkin St, San Francisco, California, 94102",
                    "phone": "",
                    "distanceMeter": "582.30"
                },
                {
                    "location": {
                        "lat": "37.7793700",
                        "lng": "-122.4174700"
                    },
                    "name": "Civic Center Plaza",
                    "address": "San Francisco, California",
                    "phone": "",
                    "distanceMeter": "525.19"
                },
                {
                    "location": {
                        "lat": "37.7734700",
                        "lng": "-122.4269900"
                    },
                    "name": "Koshland Park",
                    "address": "Page St, San Francisco, California, 94102",
                    "phone": "",
                    "distanceMeter": "685.79"
                },
                {
                    "location": {
                        "lat": "37.7791000",
                        "lng": "-122.4158000"
                    },
                    "name": "Marshall Square",
                    "address": "San Francisco, California",
                    "phone": "",
                    "distanceMeter": "564.11"
                },
                {
                    "location": {
                        "lat": "37.7788200",
                        "lng": "-122.4149700"
                    },
                    "name": "Pioneer Monument",
                    "address": "San Francisco, California",
                    "phone": "",
                    "distanceMeter": "584.45"
                },
                {
                    "location": {
                        "lat": "37.7762400",
                        "lng": "-122.4278100"
                    },
                    "name": "Hayes Valley Playground",
                    "address": "Hayes St, San Francisco, California, 94102",
                    "phone": "",
                    "distanceMeter": "754.03"
                },
                {
                    "location": {
                        "lat": "37.7803100",
                        "lng": "-122.4127600"
                    },
                    "name": "United Nations Plaza",
                    "address": "Market St, San Francisco, California, 94102",
                    "phone": "",
                    "distanceMeter": "838.12"
                },
                {
                    "location": {
                        "lat": "37.7729900",
                        "lng": "-122.4271900"
                    },
                    "name": "Koshland Park",
                    "address": "San Francisco, California",
                    "phone": "",
                    "distanceMeter": "716.86"
                },
                {
                    "location": {
                        "lat": "37.7688200",
                        "lng": "-122.4224700"
                    },
                    "name": "Strauss Playground",
                    "address": "San Francisco, California",
                    "phone": "",
                    "distanceMeter": "727.93"
                },
                {
                    "location": {
                        "lat": "37.7774200",
                        "lng": "-122.4100400"
                    },
                    "name": "Howard & Langton Mini Park",
                    "address": "Howard St, San Francisco, California, 94103",
                    "phone": "",
                    "distanceMeter": "869.06"
                },
                {
                    "location": {
                        "lat": "37.7802600",
                        "lng": "-122.4270100"
                    },
                    "name": "Margaret S Hayward Playground",
                    "address": "1000 Laguna St, San Francisco, California, 94115",
                    "phone": "",
                    "distanceMeter": "895.85"
                },
                {
                    "location": {
                        "lat": "37.7825600",
                        "lng": "-122.4159400"
                    },
                    "name": "Turk & Hyde Mini Park",
                    "address": "Turk St, San Francisco, California, 94102",
                    "phone": "",
                    "distanceMeter": "904.41"
                },
                {
                    "location": {
                        "lat": "37.7790400",
                        "lng": "-122.4286900"
                    },
                    "name": "Buchanan Street Mall",
                    "address": "McAllister St, San Francisco, California, 94115",
                    "phone": "",
                    "distanceMeter": "937.32"
                },
                {
                    "location": {
                        "lat": "37.7822300",
                        "lng": "-122.4258600"
                    },
                    "name": "Jefferson Square",
                    "address": "1101 Eddy St, San Francisco, California, 94109",
                    "phone": "",
                    "distanceMeter": "993.31"
                },
                {
                    "location": {
                        "lat": "37.7688200",
                        "lng": "-122.4269200"
                    },
                    "name": "California Volunteers Memorial",
                    "address": "San Francisco, California",
                    "phone": "",
                    "distanceMeter": "945.49"
                },
                {
                    "location": {
                        "lat": "37.7817500",
                        "lng": "-122.4258400"
                    },
                    "name": "Jefferson Square Playground",
                    "address": "San Francisco, California",
                    "phone": "",
                    "distanceMeter": "948.95"
                },
                {
                    "location": {
                        "lat": "37.7666000",
                        "lng": "-122.4221900"
                    },
                    "name": "Recreation Park (historical)",
                    "address": "San Francisco, California",
                    "phone": "",
                    "distanceMeter": "954.94"
                },
                {
                    "location": {
                        "lat": "37.7845400",
                        "lng": "-122.4154800"
                    },
                    "name": "Tenderloin Recreation Center",
                    "address": "Ellis St, San Francisco, California, 94109",
                    "phone": "",
                    "distanceMeter": "1125.92"
                },
                {
                    "location": {
                        "lat": "37.7851600",
                        "lng": "-122.4180900"
                    },
                    "name": "Sergeant John Macaulay Park",
                    "address": "O'Farrell St, San Francisco, California, 94109",
                    "phone": "",
                    "distanceMeter": "1146.66"
                },
                {
                    "location": {
                        "lat": "37.7776200",
                        "lng": "-122.4067100"
                    },
                    "name": "Victoria Manalo Draves Park",
                    "address": "Folsom St, San Francisco, California, 94103",
                    "phone": "",
                    "distanceMeter": "1155.60"
                },
                {
                    "location": {
                        "lat": "37.7641100",
                        "lng": "-122.4204700"
                    },
                    "name": "Kidpower Park",
                    "address": "Hoff St, San Francisco, California, 94110",
                    "phone": "",
                    "distanceMeter": "1203.48"
                },
                {
                    "location": {
                        "lat": "37.7821500",
                        "lng": "-122.4113600"
                    },
                    "name": "Market Street Theatre and Loft Historic District",
                    "address": "San Francisco, California",
                    "phone": "",
                    "distanceMeter": "1072.01"
                },
                {
                    "location": {
                        "lat": "37.7800700",
                        "lng": "-122.4320200"
                    },
                    "name": "Fillmore & Turk Mini Park",
                    "address": "Fillmore St, San Francisco, California, 94115",
                    "phone": "",
                    "distanceMeter": "1249.28"
                },
                {
                    "location": {
                        "lat": "37.7783500",
                        "lng": "-122.4058200"
                    },
                    "name": "Soma Rec Center",
                    "address": "Folsom St, San Francisco, California, 94103",
                    "phone": "",
                    "distanceMeter": "1253.67"
                },
                {
                    "location": {
                        "lat": "37.7852100",
                        "lng": "-122.4180300"
                    },
                    "name": "O'Farrell-Larkin Mini-Park",
                    "address": "San Francisco, California",
                    "phone": "",
                    "distanceMeter": "1152.73"
                },
                {
                    "location": {
                        "lat": "37.7636700",
                        "lng": "-122.4156800"
                    },
                    "name": "In Chan Kaajal Park",
                    "address": "17th St, San Francisco, California, 94110",
                    "phone": "",
                    "distanceMeter": "1290.82"
                },
                {
                    "location": {
                        "lat": "37.7772600",
                        "lng": "-122.4348600"
                    },
                    "name": "Alamo Square",
                    "address": "1101 Fulton St, San Francisco, California, 94117",
                    "phone": "",
                    "distanceMeter": "1383.88"
                },
                {
                    "location": {
                        "lat": "37.7692600",
                        "lng": "-122.4327700"
                    },
                    "name": "Duboce Park",
                    "address": "Duboce Ave, San Francisco, California, 94117",
                    "phone": "",
                    "distanceMeter": "1332.02"
                },
                {
                    "location": {
                        "lat": "37.7793800",
                        "lng": "-122.4334800"
                    },
                    "name": "Golden Gate & Steiner Mini Park",
                    "address": "Golden Gate Ave, San Francisco, California, 94115",
                    "phone": "",
                    "distanceMeter": "1333.98"
                },
                {
                    "location": {
                        "lat": "37.7843800",
                        "lng": "-122.4086600"
                    },
                    "name": "Hallidie Plaza",
                    "address": "Hallidie Plz, San Francisco, California, 94102",
                    "phone": "",
                    "distanceMeter": "1414.96"
                },
                {
                    "location": {
                        "lat": "37.7622800",
                        "lng": "-122.4229200"
                    },
                    "name": "Dearborn Community Garden",
                    "address": "Dearborn St, San Francisco, California, 94110",
                    "phone": "",
                    "distanceMeter": "1436.99"
                },
                {
                    "location": {
                        "lat": "37.7660400",
                        "lng": "-122.4094200"
                    },
                    "name": "Seals Stadium (historical)",
                    "address": "San Francisco, California",
                    "phone": "",
                    "distanceMeter": "1319.12"
                },
                {
                    "location": {
                        "lat": "37.7643900",
                        "lng": "-122.4094500"
                    },
                    "name": "Franklin Square",
                    "address": "2600 17th St, San Francisco, California, 94110",
                    "phone": "",
                    "distanceMeter": "1459.68"
                },
                {
                    "location": {
                        "lat": "37.7762900",
                        "lng": "-122.4346700"
                    },
                    "name": "Alamo Square",
                    "address": "San Francisco, California",
                    "phone": "",
                    "distanceMeter": "1350.96"
                },
                {
                    "location": {
                        "lat": "37.7855500",
                        "lng": "-122.4297600"
                    },
                    "name": "Japantown Peace Plaza",
                    "address": "Post St, San Francisco, California, 94115",
                    "phone": "",
                    "distanceMeter": "1493.78"
                },
                {
                    "location": {
                        "lat": "37.7693700",
                        "lng": "-122.4335800"
                    },
                    "name": "Duboce Park",
                    "address": "San Francisco, California",
                    "phone": "",
                    "distanceMeter": "1389.78"
                },
                {
                    "location": {
                        "lat": "37.7771500",
                        "lng": "-122.4349700"
                    },
                    "name": "Alamo Square Historic District",
                    "address": "San Francisco, California",
                    "phone": "",
                    "distanceMeter": "1391.13"
                },
                {
                    "location": {
                        "lat": "37.7650300",
                        "lng": "-122.4335400"
                    },
                    "name": "Noe & Beaver Mini Park",
                    "address": "Beaver St, San Francisco, California, 94114",
                    "phone": "",
                    "distanceMeter": "1658.07"
                },
                {
                    "location": {
                        "lat": "37.7862400",
                        "lng": "-122.4322200"
                    },
                    "name": "Cottage Row Mini Park",
                    "address": "Sutter St, San Francisco, California, 94115",
                    "phone": "",
                    "distanceMeter": "1690.98"
                },
                {
                    "location": {
                        "lat": "37.7842300",
                        "lng": "-122.4350000"
                    },
                    "name": "Hamilton Recreation Center",
                    "address": "1900 Geary Blvd, San Francisco, California, 94115",
                    "phone": "",
                    "distanceMeter": "1719.30"
                },
                {
                    "location": {
                        "lat": "37.7883800",
                        "lng": "-122.4075100"
                    },
                    "name": "Union Square",
                    "address": "301 Post St, San Francisco, California, 94108",
                    "phone": "",
                    "distanceMeter": "1827.19"
                },
                {
                    "location": {
                        "lat": "37.7593200",
                        "lng": "-122.4213500"
                    },
                    "name": "Mission Pool and Playground",
                    "address": "Valencia St, San Francisco, California, 94110",
                    "phone": "",
                    "distanceMeter": "1740.88"
                },
                {
                    "location": {
                        "lat": "37.7838700",
                        "lng": "-122.4358100"
                    },
                    "name": "Raymond Kimball Playground",
                    "address": "Geary Blvd, San Francisco, California, 94115",
                    "phone": "(415) 292-2007",
                    "distanceMeter": "1753.51"
                },
                {
                    "location": {
                        "lat": "37.7825600",
                        "lng": "-122.4005300"
                    },
                    "name": "Yerba Buena Ice Skating and Bowling Center",
                    "address": "750 Folsom St, San Francisco, California, 94107",
                    "phone": "(415) 820-3521",
                    "distanceMeter": "1864.36"
                },
                {
                    "location": {
                        "lat": "37.7588800",
                        "lng": "-122.4180000"
                    },
                    "name": "Alioto Mini Park",
                    "address": "Capp St, San Francisco, California, 94110",
                    "phone": "",
                    "distanceMeter": "1785.59"
                },
                {
                    "location": {
                        "lat": "37.7832600",
                        "lng": "-122.4349700"
                    },
                    "name": "Kimbell Playground",
                    "address": "San Francisco, California",
                    "phone": "",
                    "distanceMeter": "1654.28"
                },
                {
                    "location": {
                        "lat": "37.7624900",
                        "lng": "-122.4061800"
                    },
                    "name": "Utah & 18th Mini Park",
                    "address": "Utah St, San Francisco, California, 94110",
                    "phone": "",
                    "distanceMeter": "1804.02"
                }
            ]
        }
    },
    "{'lat': 37.7749, 'lng': -122.4194, 'radius': 5000, 'type': 'landmark'}": {
        "error": "",
        "response": {
            "status": "ZERO_RESULTS",
            "message": "No results found. Try a larger radius.",
            "results": []
        }
    },
    "{'lat': 49.2803703, 'lng': -123.0413988}": {
        "error": "",
        "response": {
            "status": "OK",
            "results": [
                {
                    "location": {
                        "lat": "49.2825380",
                        "lng": "-123.0430090"
                    },
                    "name": "Forum Cafe",
                    "address": "Pne Forum, Vancouver, British Columbia, V5K",
                    "phone": "",
                    "distanceMeter": "267.85"
                },
                {
                    "location": {
                        "lat": "49.2814050",
                        "lng": "-123.0464940"
                    },
                    "name": "Tim Hortons",
                    "address": "2801 Hastings St E Unit, Vancouver, British Columbia, V5K 2A1",
                    "phone": "(604) 254-2735",
                    "distanceMeter": "387.09"
                },
                {
                    "location": {
                        "lat": "49.2813330",
                        "lng": "-123.0470280"
                    },
                    "name": "Starbucks",
                    "address": "2795 Hastings St E, Vancouver, British Columbia, V5K 1Z8",
                    "phone": "(604) 215-2424",
                    "distanceMeter": "422.13"
                }
            ]
        }
    },
    "{'lat': 49.2803703, 'lng': -123.0413988, 'radius': 5000, 'type': 'restaurant'}": {
        "error": "",
        "response": {
            "status": "OK",
            "results": [
                {
                    "location": {
                        "lat": "49.2825090",
                        "lng": "-123.0430110"
                    },
                    "name": "Pacific National Exhibition PNE",
                    "address": "2901 Hastings St E, Vancouver, British Columbia, V5K 5J1",
                    "phone": "(604) 253-2311",
                    "distanceMeter": "265.01"
                },
                {
                    "location": {
                        "lat": "49.2809460",
                        "lng": "-123.0464820"
                    },
                    "name": "Moulin Rouge Bar & Grill",
                    "address": "2828 Hastings St E, Vancouver, British Columbia, V5K 5C5",
                    "phone": "(604) 251-4141",
                    "distanceMeter": "374.24"
                },
                {
                    "location": {
                        "lat": "49.2818690",
                        "lng": "-123.0362830"
                    },
                    "name": "Triple O's",
                    "address": "2901 Hastings St E, Vancouver, British Columbia, V5K 5J1",
                    "phone": "(604) 253-2311",
                    "distanceMeter": "406.79"
                },
                {
                    "location": {
                        "lat": "49.2770080",
                        "lng": "-123.0438290"
                    },
                    "name": "Whiskey Six BBQ",
                    "address": "826 Renfrew St, Vancouver, British Columbia, V5K 4B6",
                    "phone": "(604) 428-4050",
                    "distanceMeter": "413.35"
                },
                {
                    "location": {
                        "lat": "49.2812630",
                        "lng": "-123.0472570"
                    },
                    "name": "Le Petit Saigon",
                    "address": "2783 Hastings St E, Vancouver, British Columbia, V5K 1Z8",
                    "phone": "(604) 251-6340",
                    "distanceMeter": "436.38"
                },
                {
                    "location": {
                        "lat": "49.2810130",
                        "lng": "-123.0354410"
                    },
                    "name": "Jerome's",
                    "address": "Pne Gate, Vancouver, British Columbia, V5K 3N8",
                    "phone": "(604) 254-1631",
                    "distanceMeter": "438.04"
                },
                {
                    "location": {
                        "lat": "49.2843330",
                        "lng": "-123.0406180"
                    },
                    "name": "Henry's Chicken BBQ",
                    "address": "2901 Hastings St E, Vancouver, British Columbia, V5K 5J1",
                    "phone": "(604) 551-5957",
                    "distanceMeter": "444.26"
                },
                {
                    "location": {
                        "lat": "49.2824530",
                        "lng": "-123.0352430"
                    },
                    "name": "The Wooden Roller Coaster",
                    "address": "2901 Hastings St E, Vancouver, British Columbia, V5K 5J1",
                    "phone": "(604) 253-2311",
                    "distanceMeter": "503.01"
                },
                {
                    "location": {
                        "lat": "49.2813330",
                        "lng": "-123.0490670"
                    },
                    "name": "The Slocan",
                    "address": "2715 Hastings St E, Vancouver, British Columbia, V5K 1Z8",
                    "phone": "(604) 254-9114",
                    "distanceMeter": "566.45"
                },
                {
                    "location": {
                        "lat": "49.2854440",
                        "lng": "-123.0423460"
                    },
                    "name": "Triple O's",
                    "address": "100 Renfrew St N, Vancouver, British Columbia, V5K 3N7",
                    "phone": "(604) 252-3543",
                    "distanceMeter": "568.34"
                },
                {
                    "location": {
                        "lat": "49.2857130",
                        "lng": "-123.0406330"
                    },
                    "name": "Silks Restaurant",
                    "address": "188 Renfrew St N, Vancouver, British Columbia, V5K 3N8",
                    "phone": "(604) 216-5273",
                    "distanceMeter": "596.67"
                },
                {
                    "location": {
                        "lat": "49.2814990",
                        "lng": "-123.0499040"
                    },
                    "name": "James on Hastings Chinese Restaurant",
                    "address": "2683 Hastings St E, Vancouver, British Columbia, V5K 1Z5",
                    "phone": "(604) 255-3188",
                    "distanceMeter": "629.59"
                },
                {
                    "location": {
                        "lat": "49.2755450",
                        "lng": "-123.0366100"
                    },
                    "name": "Parker Street Cafe",
                    "address": "985 Windermere St, Vancouver, British Columbia, V5K 4J6",
                    "phone": "(604) 365-0048",
                    "distanceMeter": "639.19"
                },
                {
                    "location": {
                        "lat": "49.2808950",
                        "lng": "-123.0537840"
                    },
                    "name": "El Pulgarcito",
                    "address": "2522 Hastings St E, Vancouver, British Columbia, V5K 1Z3",
                    "phone": "(604) 568-8591",
                    "distanceMeter": "900.30"
                },
                {
                    "location": {
                        "lat": "49.2812890",
                        "lng": "-123.0280670"
                    },
                    "name": "Motonobu Udon",
                    "address": "3501 Hastings St E, Vancouver, British Columbia, V5K 0E5",
                    "phone": "(604) 293-1889",
                    "distanceMeter": "972.45"
                },
                {
                    "location": {
                        "lat": "49.2810120",
                        "lng": "-123.0549040"
                    },
                    "name": "Felicia's Restaurant",
                    "address": "2492 Hastings St E, Vancouver, British Columbia, V5K 1Z1",
                    "phone": "(604) 255-6116",
                    "distanceMeter": "982.24"
                },
                {
                    "location": {
                        "lat": "49.2813010",
                        "lng": "-123.0550590"
                    },
                    "name": "Master Chef Cafe",
                    "address": "2481 Hastings St E, Vancouver, British Columbia, V5K 1Y8",
                    "phone": "(604) 254-6352",
                    "distanceMeter": "996.28"
                },
                {
                    "location": {
                        "lat": "49.2814020",
                        "lng": "-123.0553230"
                    },
                    "name": "Roundel Cafe",
                    "address": "2465 Hastings St E, Vancouver, British Columbia, V5K 1Y8",
                    "phone": "(604) 253-2522",
                    "distanceMeter": "1016.53"
                },
                {
                    "location": {
                        "lat": "49.2813540",
                        "lng": "-123.0274110"
                    },
                    "name": "Just Waffles",
                    "address": "3531 Hastings St E, Vancouver, British Columbia, V5K 2A8",
                    "phone": "(604) 518-9041",
                    "distanceMeter": "1020.53"
                },
                {
                    "location": {
                        "lat": "49.2815090",
                        "lng": "-123.0270600"
                    },
                    "name": "Golden Lake Seafood Restaurant",
                    "address": "3555 Hastings St E, Vancouver, British Columbia, V5K 2A8",
                    "phone": "(604) 298-2468",
                    "distanceMeter": "1047.79"
                },
                {
                    "location": {
                        "lat": "49.2813780",
                        "lng": "-123.0575090"
                    },
                    "name": "Tacofino",
                    "address": "2327 Hastings St E, Vancouver, British Columbia, V5L 1V6",
                    "phone": "(604) 253-8226",
                    "distanceMeter": "1173.97"
                },
                {
                    "location": {
                        "lat": "49.2698500",
                        "lng": "-123.0439280"
                    },
                    "name": "Rib & Chicken",
                    "address": "1660 Renfrew St, Vancouver, British Columbia, V5K 4E1",
                    "phone": "(604) 558-0773",
                    "distanceMeter": "1184.11"
                },
                {
                    "location": {
                        "lat": "49.2808980",
                        "lng": "-123.0580080"
                    },
                    "name": "The Red Wagon",
                    "address": "2128 Hastings St E, Vancouver, British Columbia, V5L",
                    "phone": "(604) 568-4565",
                    "distanceMeter": "1206.24"
                },
                {
                    "location": {
                        "lat": "49.2814050",
                        "lng": "-123.0580560"
                    },
                    "name": "Campagnolo Roma",
                    "address": "2297 Hastings St E, Vancouver, British Columbia, V5L 1V3",
                    "phone": "(604) 569-0456",
                    "distanceMeter": "1213.75"
                },
                {
                    "location": {
                        "lat": "49.2809900",
                        "lng": "-123.0246210"
                    },
                    "name": "Caterers Kasmiri Inn",
                    "address": "3634 Hastings St E, Vancouver, British Columbia, V5K 2A9",
                    "phone": "(604) 294-3937",
                    "distanceMeter": "1218.99"
                },
                {
                    "location": {
                        "lat": "49.2808840",
                        "lng": "-123.0585380"
                    },
                    "name": "Bix Bistro",
                    "address": "2270 Hastings St E, Vancouver, British Columbia, V5L 1V4",
                    "phone": "(604) 569-2220",
                    "distanceMeter": "1244.57"
                },
                {
                    "location": {
                        "lat": "49.2813160",
                        "lng": "-123.0587580"
                    },
                    "name": "Sweet and Savoury Pie",
                    "address": "2261 Hastings St E, Vancouver, British Columbia, V5L 1V3",
                    "phone": "",
                    "distanceMeter": "1263.59"
                },
                {
                    "location": {
                        "lat": "49.2814200",
                        "lng": "-123.0587510"
                    },
                    "name": "Poke 153",
                    "address": "2261 Hastings St E, Vancouver, British Columbia, V5L 1V3",
                    "phone": "",
                    "distanceMeter": "1264.10"
                },
                {
                    "location": {
                        "lat": "49.2692630",
                        "lng": "-123.0453650"
                    },
                    "name": "East One Chinese Seafood Restaurant",
                    "address": "2800 E 1st Ave, Vancouver, British Columbia, V5M 4P3",
                    "phone": "(604) 215-7875",
                    "distanceMeter": "1268.15"
                },
                {
                    "location": {
                        "lat": "49.2692550",
                        "lng": "-123.0453440"
                    },
                    "name": "Venice Garden Seafood Restaurant",
                    "address": "2800 E 1st Ave, Ste 262, Vancouver, British Columbia, V5M 4P3",
                    "phone": "(604) 876-8828",
                    "distanceMeter": "1268.67"
                },
                {
                    "location": {
                        "lat": "49.2814330",
                        "lng": "-123.0588800"
                    },
                    "name": "Jackalope's Neighbourhood Dive",
                    "address": "2257 Hastings St E, Vancouver, British Columbia, V5L 1V3",
                    "phone": "(604) 568-6674",
                    "distanceMeter": "1273.55"
                },
                {
                    "location": {
                        "lat": "49.2690990",
                        "lng": "-123.0446780"
                    },
                    "name": "Fortune City Seafood Restaurant",
                    "address": "2800 E 1st Ave, Ste 302, Vancouver, British Columbia, V5K 4X7",
                    "phone": "(604) 255-0008",
                    "distanceMeter": "1275.69"
                },
                {
                    "location": {
                        "lat": "49.2809520",
                        "lng": "-123.0590730"
                    },
                    "name": "Chomp Vegan Eatery",
                    "address": "2234 Hastings St E, Vancouver, British Columbia, V5L 1V4",
                    "phone": "(604) 917-0201",
                    "distanceMeter": "1283.69"
                },
                {
                    "location": {
                        "lat": "49.2915890",
                        "lng": "-123.0477770"
                    },
                    "name": "PartyChef",
                    "address": "2762 Wall St, Vancouver, British Columbia, V5K 1A9",
                    "phone": "(604) 317-2946",
                    "distanceMeter": "1330.48"
                },
                {
                    "location": {
                        "lat": "49.2687480",
                        "lng": "-123.0458620"
                    },
                    "name": "Kook Korean BBQ",
                    "address": "2800 1st Ave E Ste 211 A, Vancouver, British Columbia, V5M 4N9",
                    "phone": "(604) 566-5665",
                    "distanceMeter": "1332.29"
                },
                {
                    "location": {
                        "lat": "49.2813830",
                        "lng": "-123.0601190"
                    },
                    "name": "Van Dragon Chinese Restaurant",
                    "address": "2163 Hastings St E, Vancouver, British Columbia, V5L 1V2",
                    "phone": "(604) 255-0680",
                    "distanceMeter": "1362.59"
                },
                {
                    "location": {
                        "lat": "49.2690670",
                        "lng": "-123.0340970"
                    },
                    "name": "Poor Italian",
                    "address": "3296 1st Ave E, Vancouver, British Columbia, V5M 1B8",
                    "phone": "(604) 251-1122",
                    "distanceMeter": "1363.94"
                },
                {
                    "location": {
                        "lat": "49.2682630",
                        "lng": "-123.0446570"
                    },
                    "name": "Pho Ngon",
                    "address": "1801 Renfrew St, Vancouver, British Columbia, V5M 3J1",
                    "phone": "(604) 336-5190",
                    "distanceMeter": "1366.87"
                },
                {
                    "location": {
                        "lat": "49.2809130",
                        "lng": "-123.0225120"
                    },
                    "name": "Baci Restaurant",
                    "address": "3728 Hastings St, Burnaby, British Columbia, V5C 2H5",
                    "phone": "(604) 299-7047",
                    "distanceMeter": "1371.35"
                },
                {
                    "location": {
                        "lat": "49.2727120",
                        "lng": "-123.0562230"
                    },
                    "name": "New York Foods",
                    "address": "1360 Nanaimo St, Vancouver, British Columbia, V5L 4T6",
                    "phone": "(604) 251-4188",
                    "distanceMeter": "1371.74"
                },
                {
                    "location": {
                        "lat": "49.2809500",
                        "lng": "-123.0219060"
                    },
                    "name": "Kato Japanese & Chinese Restaurant",
                    "address": "3760 Hastings St, Burnaby, British Columbia, V5C 2H5",
                    "phone": "(604) 299-7299",
                    "distanceMeter": "1415.45"
                },
                {
                    "location": {
                        "lat": "49.2809710",
                        "lng": "-123.0218870"
                    },
                    "name": "Mr Chili Noodle House",
                    "address": "3760 Hastings St, Burnaby, British Columbia, V5C 2H5",
                    "phone": "(604) 299-7299",
                    "distanceMeter": "1416.93"
                },
                {
                    "location": {
                        "lat": "49.2809910",
                        "lng": "-123.0610460"
                    },
                    "name": "IPOH Asian House",
                    "address": "2128 Hastings St E, Vancouver, British Columbia, V5L 1V1",
                    "phone": "(604) 251-3322",
                    "distanceMeter": "1426.85"
                },
                {
                    "location": {
                        "lat": "49.2814310",
                        "lng": "-123.0625600"
                    },
                    "name": "Koko Japanese Restaurant Ltd",
                    "address": "2053 Hastings St E, Vancouver, British Columbia, V5L 1T9",
                    "phone": "(604) 251-1328",
                    "distanceMeter": "1539.52"
                },
                {
                    "location": {
                        "lat": "49.2813780",
                        "lng": "-123.0630870"
                    },
                    "name": "A&W (Canada)",
                    "address": "2033 Hastings St E, Vancouver, British Columbia, V5L 1T9",
                    "phone": "(604) 255-5942",
                    "distanceMeter": "1577.21"
                },
                {
                    "location": {
                        "lat": "49.2701630",
                        "lng": "-123.0569180"
                    },
                    "name": "Song Huong Vietnamese",
                    "address": "1613 Nanaimo St, Vancouver, British Columbia, V5L 4T9",
                    "phone": "(604) 568-1196",
                    "distanceMeter": "1598.69"
                },
                {
                    "location": {
                        "lat": "49.2850840",
                        "lng": "-123.0622730"
                    },
                    "name": "Dundas Eat Drink",
                    "address": "2077 Dundas St, Vancouver, British Columbia, V5L 1J5",
                    "phone": "(604) 420-1200",
                    "distanceMeter": "1602.28"
                },
                {
                    "location": {
                        "lat": "49.2812880",
                        "lng": "-123.0193090"
                    },
                    "name": "The Egg & Co",
                    "address": "3851 Hastings St, Burnaby, British Columbia, V5C 2H7",
                    "phone": "(604) 294-8505",
                    "distanceMeter": "1605.60"
                },
                {
                    "location": {
                        "lat": "49.2812690",
                        "lng": "-123.0193060"
                    },
                    "name": "So Crab So Good Seafood Restaurant",
                    "address": "3853 Hastings St, Burnaby, British Columbia, V5C 2H7",
                    "phone": "(604) 620-8906",
                    "distanceMeter": "1605.69"
                },
                {
                    "location": {
                        "lat": "49.2686980",
                        "lng": "-123.0561800"
                    },
                    "name": "Cindys Palace",
                    "address": "1796 Nanaimo St, Vancouver, British Columbia, V5N 5B9",
                    "phone": "(604) 253-6183",
                    "distanceMeter": "1683.59"
                }
            ]
        }
    },
    "{'lat': 49.2803703, 'lng': -123.0413988, 'radius': 2000}": {
        "error": "",
        "response": {
            "status": "OK",
            "results": [
                {
                    "location": {
                        "lat": "49.2825380",
                        "lng": "-123.0430090"
                    },
                    "name": "Forum Cafe",
                    "address": "Pne Forum, Vancouver, British Columbia, V5K",
                    "phone": "",
                    "distanceMeter": "267.85"
                },
                {
                    "location": {
                        "lat": "49.2814050",
                        "lng": "-123.0464940"
                    },
                    "name": "Tim Hortons",
                    "address": "2801 Hastings St E Unit, Vancouver, British Columbia, V5K 2A1",
                    "phone": "(604) 254-2735",
                    "distanceMeter": "387.09"
                },
                {
                    "location": {
                        "lat": "49.2813330",
                        "lng": "-123.0470280"
                    },
                    "name": "Starbucks",
                    "address": "2795 Hastings St E, Vancouver, British Columbia, V5K 1Z8",
                    "phone": "(604) 215-2424",
                    "distanceMeter": "422.13"
                },
                {
                    "location": {
                        "lat": "49.2754980",
                        "lng": "-123.0365990"
                    },
                    "name": "Parker St Cafe & Roasters",
                    "address": "985 Windermere St, Vancouver, British Columbia, V5K 4J6",
                    "phone": "(604) 365-0048",
                    "distanceMeter": "644.02"
                },
                {
                    "location": {
                        "lat": "49.2809670",
                        "lng": "-123.0536750"
                    },
                    "name": "Vietnamese Tea House",
                    "address": "2526 Hastings St E, Vancouver, British Columbia, V5K 1Z3",
                    "phone": "(604) 620-5922",
                    "distanceMeter": "892.97"
                },
                {
                    "location": {
                        "lat": "49.2807710",
                        "lng": "-123.0279690"
                    },
                    "name": "Tim Hortons",
                    "address": "3502 Hastings St E, Vancouver, British Columbia, V5K 2A7",
                    "phone": "(604) 299-4288",
                    "distanceMeter": "975.20"
                },
                {
                    "location": {
                        "lat": "49.2809540",
                        "lng": "-123.0569000"
                    },
                    "name": "Steam Tea House",
                    "address": "2342 Hastings St E, Vancouver, British Columbia, V5L 1V5",
                    "phone": "(778) 889-8327",
                    "distanceMeter": "1126.31"
                },
                {
                    "location": {
                        "lat": "49.2813880",
                        "lng": "-123.0574300"
                    },
                    "name": "Seto Cafe",
                    "address": "2341 Hastings St E, Vancouver, British Columbia, V5L 1V6",
                    "phone": "(604) 255-9411",
                    "distanceMeter": "1168.37"
                },
                {
                    "location": {
                        "lat": "49.2813040",
                        "lng": "-123.0587000"
                    },
                    "name": "Aer Cafe",
                    "address": "2263 Hastings St E, Vancouver, British Columbia, V5L 1V3",
                    "phone": "(604) 258-8749",
                    "distanceMeter": "1259.29"
                },
                {
                    "location": {
                        "lat": "49.2685950",
                        "lng": "-123.0438890"
                    },
                    "name": "Dynastea Bubble Tea House",
                    "address": "2909 2nd Ave E, Vancouver, British Columbia, V5M 1E6",
                    "phone": "(778) 989-9600",
                    "distanceMeter": "1321.76"
                },
                {
                    "location": {
                        "lat": "49.2687570",
                        "lng": "-123.0463010"
                    },
                    "name": "Little Bubble Tea House",
                    "address": "2800 1st Ave E, Ste 104, Vancouver, British Columbia, V5M 4N8",
                    "phone": "(604) 251-7979",
                    "distanceMeter": "1339.42"
                }
            ]
        }
    },
    "{'lat': 49.2803703, 'lng': -123.0413988, 'type': 'restaurant', 'radius': 5000}": {
        "error": "",
        "response": {
            "status": "OK",
            "results": [
                {
                    "location": {
                        "lat": "49.2825090",
                        "lng": "-123.0430110"
                    },
                    "name": "Pacific National Exhibition PNE",
                    "address": "2901 Hastings St E, Vancouver, British Columbia, V5K 5J1",
                    "phone": "(604) 253-2311",
                    "distanceMeter": "265.01"
                },
                {
                    "location": {
                        "lat": "49.2809460",
                        "lng": "-123.0464820"
                    },
                    "name": "Moulin Rouge Bar & Grill",
                    "address": "2828 Hastings St E, Vancouver, British Columbia, V5K 5C5",
                    "phone": "(604) 251-4141",
                    "distanceMeter": "374.24"
                },
                {
                    "location": {
                        "lat": "49.2818690",
                        "lng": "-123.0362830"
                    },
                    "name": "Triple O's",
                    "address": "2901 Hastings St E, Vancouver, British Columbia, V5K 5J1",
                    "phone": "(604) 253-2311",
                    "distanceMeter": "406.79"
                },
                {
                    "location": {
                        "lat": "49.2770080",
                        "lng": "-123.0438290"
                    },
                    "name": "Whiskey Six BBQ",
                    "address": "826 Renfrew St, Vancouver, British Columbia, V5K 4B6",
                    "phone": "(604) 428-4050",
                    "distanceMeter": "413.35"
                },
                {
                    "location": {
                        "lat": "49.2812630",
                        "lng": "-123.0472570"
                    },
                    "name": "Le Petit Saigon",
                    "address": "2783 Hastings St E, Vancouver, British Columbia, V5K 1Z8",
                    "phone": "(604) 251-6340",
                    "distanceMeter": "436.38"
                },
                {
                    "location": {
                        "lat": "49.2810130",
                        "lng": "-123.0354410"
                    },
                    "name": "Jerome's",
                    "address": "Pne Gate, Vancouver, British Columbia, V5K 3N8",
                    "phone": "(604) 254-1631",
                    "distanceMeter": "438.04"
                },
                {
                    "location": {
                        "lat": "49.2843330",
                        "lng": "-123.0406180"
                    },
                    "name": "Henry's Chicken BBQ",
                    "address": "2901 Hastings St E, Vancouver, British Columbia, V5K 5J1",
                    "phone": "(604) 551-5957",
                    "distanceMeter": "444.26"
                },
                {
                    "location": {
                        "lat": "49.2824530",
                        "lng": "-123.0352430"
                    },
                    "name": "The Wooden Roller Coaster",
                    "address": "2901 Hastings St E, Vancouver, British Columbia, V5K 5J1",
                    "phone": "(604) 253-2311",
                    "distanceMeter": "503.01"
                },
                {
                    "location": {
                        "lat": "49.2813330",
                        "lng": "-123.0490670"
                    },
                    "name": "The Slocan",
                    "address": "2715 Hastings St E, Vancouver, British Columbia, V5K 1Z8",
                    "phone": "(604) 254-9114",
                    "distanceMeter": "566.45"
                },
                {
                    "location": {
                        "lat": "49.2854440",
                        "lng": "-123.0423460"
                    },
                    "name": "Triple O's",
                    "address": "100 Renfrew St N, Vancouver, British Columbia, V5K 3N7",
                    "phone": "(604) 252-3543",
                    "distanceMeter": "568.34"
                },
                {
                    "location": {
                        "lat": "49.2857130",
                        "lng": "-123.0406330"
                    },
                    "name": "Silks Restaurant",
                    "address": "188 Renfrew St N, Vancouver, British Columbia, V5K 3N8",
                    "phone": "(604) 216-5273",
                    "distanceMeter": "596.67"
                },
                {
                    "location": {
                        "lat": "49.2814990",
                        "lng": "-123.0499040"
                    },
                    "name": "James on Hastings Chinese Restaurant",
                    "address": "2683 Hastings St E, Vancouver, British Columbia, V5K 1Z5",
                    "phone": "(604) 255-3188",
                    "distanceMeter": "629.59"
                },
                {
                    "location": {
                        "lat": "49.2755450",
                        "lng": "-123.0366100"
                    },
                    "name": "Parker Street Cafe",
                    "address": "985 Windermere St, Vancouver, British Columbia, V5K 4J6",
                    "phone": "(604) 365-0048",
                    "distanceMeter": "639.19"
                },
                {
                    "location": {
                        "lat": "49.2808950",
                        "lng": "-123.0537840"
                    },
                    "name": "El Pulgarcito",
                    "address": "2522 Hastings St E, Vancouver, British Columbia, V5K 1Z3",
                    "phone": "(604) 568-8591",
                    "distanceMeter": "900.30"
                },
                {
                    "location": {
                        "lat": "49.2812890",
                        "lng": "-123.0280670"
                    },
                    "name": "Motonobu Udon",
                    "address": "3501 Hastings St E, Vancouver, British Columbia, V5K 0E5",
                    "phone": "(604) 293-1889",
                    "distanceMeter": "972.45"
                },
                {
                    "location": {
                        "lat": "49.2810120",
                        "lng": "-123.0549040"
                    },
                    "name": "Felicia's Restaurant",
                    "address": "2492 Hastings St E, Vancouver, British Columbia, V5K 1Z1",
                    "phone": "(604) 255-6116",
                    "distanceMeter": "982.24"
                },
                {
                    "location": {
                        "lat": "49.2813010",
                        "lng": "-123.0550590"
                    },
                    "name": "Master Chef Cafe",
                    "address": "2481 Hastings St E, Vancouver, British Columbia, V5K 1Y8",
                    "phone": "(604) 254-6352",
                    "distanceMeter": "996.28"
                },
                {
                    "location": {
                        "lat": "49.2814020",
                        "lng": "-123.0553230"
                    },
                    "name": "Roundel Cafe",
                    "address": "2465 Hastings St E, Vancouver, British Columbia, V5K 1Y8",
                    "phone": "(604) 253-2522",
                    "distanceMeter": "1016.53"
                },
                {
                    "location": {
                        "lat": "49.2813540",
                        "lng": "-123.0274110"
                    },
                    "name": "Just Waffles",
                    "address": "3531 Hastings St E, Vancouver, British Columbia, V5K 2A8",
                    "phone": "(604) 518-9041",
                    "distanceMeter": "1020.53"
                },
                {
                    "location": {
                        "lat": "49.2815090",
                        "lng": "-123.0270600"
                    },
                    "name": "Golden Lake Seafood Restaurant",
                    "address": "3555 Hastings St E, Vancouver, British Columbia, V5K 2A8",
                    "phone": "(604) 298-2468",
                    "distanceMeter": "1047.79"
                },
                {
                    "location": {
                        "lat": "49.2813780",
                        "lng": "-123.0575090"
                    },
                    "name": "Tacofino",
                    "address": "2327 Hastings St E, Vancouver, British Columbia, V5L 1V6",
                    "phone": "(604) 253-8226",
                    "distanceMeter": "1173.97"
                },
                {
                    "location": {
                        "lat": "49.2698500",
                        "lng": "-123.0439280"
                    },
                    "name": "Rib & Chicken",
                    "address": "1660 Renfrew St, Vancouver, British Columbia, V5K 4E1",
                    "phone": "(604) 558-0773",
                    "distanceMeter": "1184.11"
                },
                {
                    "location": {
                        "lat": "49.2808980",
                        "lng": "-123.0580080"
                    },