{
    "{'lon': '', 'lat': ''}": {
        "error": "",
        "response": {
            "detail": "Wrong value of latitude"
        }
    },
    "{'lon': '39.17323E', 'lat': '21.50387N'}": {
        "error": "",
        "response": {
            "name": "Madīnat al Malik Fahd as Sāḩilīyah",
            "place_id": "madinat-al-malik-fahd-as-sahiliyah-412762",
            "adm_area1": "Mecca Region",
            "adm_area2": null,
            "country": "Kingdom of Saudi Arabia",
            "lat": "21.50387N",
            "lon": "39.17323E",
            "timezone": "Asia/Riyadh",
            "type": "settlement"
        }
    },
    "{'lat': '37.7749N', 'lon': '122.4194W'}": {
        "error": "",
        "response": {
            "name": "San Francisco",
            "place_id": "san-francisco",
            "adm_area1": "California",
            "adm_area2": "San Francisco County",
            "country": "United States of America",
            "lat": "37.77493N",
            "lon": "122.41942W",
            "timezone": "America/Los_Angeles",
            "type": "settlement"
        }
    },
    "{'lat': '40.71427N', 'lon': '74.00597W'}": {
        "error": "",
        "response": {
            "name": "New York",
            "place_id": "new-york-city",
            "adm_area1": "New York",
            "adm_area2": null,
            "country": "United States of America",
            "lat": "40.71427N",
            "lon": "74.00597W",
            "timezone": "America/New_York",
            "type": "settlement"
        }
    },
    "{'lat': '40.7128N', 'lon': '74.0060W'}": {
        "error": "",
        "response": {
            "name": "New York",
            "place_id": "new-york-city",
            "adm_area1": "New York",
            "adm_area2": null,
            "country": "United States of America",
            "lat": "40.71427N",
            "lon": "74.00597W",
            "timezone": "America/New_York",
            "type": "settlement"
        }
    },
    "{'lon': '0.0', 'lat': '0.0'}": {
        "error": "",
        "response": {
            "name": "Atwiwa",
            "place_id": "atwiwa-2306035",
            "adm_area1": "Western",
            "adm_area2": "Ahanta West",
            "country": "Ghana",
            "lat": "4.76896N",
            "lon": "1.97433W",
            "timezone": "Africa/Accra",
            "type": "settlement"
        }
    },
    "{'lon': '[longitude of my current location]', 'lat': '[latitude of my current location]'}": {
        "error": "",
        "response": {
            "detail": "Wrong value of latitude"
        }
    },
    "{'lon': '0', 'lat': '0'}": {
        "error": "",
        "response": {
            "name": "Atwiwa",
            "place_id": "atwiwa-2306035",
            "adm_area1": "Western",
            "adm_area2": "Ahanta West",
            "country": "Ghana",
            "lat": "4.76896N",
            "lon": "1.97433W",
            "timezone": "Africa/Accra",
            "type": "settlement"
        }
    },
    "{'lon': '<longitude>', 'lat': '<latitude>'}": {
        "error": "",
        "response": {
            "detail": "Wrong value of latitude"
        }
    },
    "{'lat': '21.50387N', 'lon': '39.17323E'}": {
        "error": "",
        "response": {
            "name": "Madīnat al Malik Fahd as Sāḩilīyah",
            "place_id": "madinat-al-malik-fahd-as-sahiliyah-412762",
            "adm_area1": "Mecca Region",
            "adm_area2": null,
            "country": "Kingdom of Saudi Arabia",
            "lat": "21.50387N",
            "lon": "39.17323E",
            "timezone": "Asia/Riyadh",
            "type": "settlement"
        }
    },
    "{'lat': '37.81021N', 'lon': '122.42282W'}": {
        "error": "",
        "response": {
            "name": "Fisherman's Warf",
            "place_id": "fishermans-warf-11809031",
            "adm_area1": "California",
            "adm_area2": "San Francisco County",
            "country": "United States of America",
            "lat": "37.808N",
            "lon": "122.41774W",
            "timezone": "America/Los_Angeles",
            "type": "settlement"
        }
    },
    "{'lat': '0', 'lon': '0'}": {
        "error": "",
        "response": {
            "name": "Atwiwa",
            "place_id": "atwiwa-2306035",
            "adm_area1": "Western",
            "adm_area2": "Ahanta West",
            "country": "Ghana",
            "lat": "4.76896N",
            "lon": "1.97433W",
            "timezone": "Africa/Accra",
            "type": "settlement"
        }
    },
    "{'lat': '0', 'lon': '0', 'language': 'en'}": {
        "error": "",
        "response": {
            "name": "Atwiwa",
            "place_id": "atwiwa-2306035",
            "adm_area1": "Western",
            "adm_area2": "Ahanta West",
            "country": "Ghana",
            "lat": "4.76896N",
            "lon": "1.97433W",
            "timezone": "Africa/Accra",
            "type": "settlement"
        }
    },
    "{'lat': 'COASTAL_CITY_LATITUDE', 'lon': 'COASTAL_CITY_LONGITUDE'}": {
        "error": "",
        "response": {
            "detail": "Wrong value of latitude"
        }
    },
    "{'lon': '74.00597W', 'lat': '40.71427N'}": {
        "error": "",
        "response": {
            "name": "New York",
            "place_id": "new-york-city",
            "adm_area1": "New York",
            "adm_area2": null,
            "country": "United States of America",
            "lat": "40.71427N",
            "lon": "74.00597W",
            "timezone": "America/New_York",
            "type": "settlement"
        }
    },
    "{'lon': '-74.00597', 'lat': '40.71427'}": {
        "error": "",
        "response": {
            "name": "New York",
            "place_id": "new-york-city",
            "adm_area1": "New York",
            "adm_area2": null,
            "country": "United States of America",
            "lat": "40.71427N",
            "lon": "74.00597W",
            "timezone": "America/New_York",
            "type": "settlement"
        }
    },
    "{'lat': '40.71427', 'lon': '-74.00597'}": {
        "error": "",
        "response": {
            "name": "New York",
            "place_id": "new-york-city",
            "adm_area1": "New York",
            "adm_area2": null,
            "country": "United States of America",
            "lat": "40.71427N",
            "lon": "74.00597W",
            "timezone": "America/New_York",
            "type": "settlement"
        }
    },
    "{'lon': '0.00000E', 'lat': '0.00000N'}": {
        "error": "",
        "response": {
            "name": "Atwiwa",
            "place_id": "atwiwa-2306035",
            "adm_area1": "Western",
            "adm_area2": "Ahanta West",
            "country": "Ghana",
            "lat": "4.76896N",
            "lon": "1.97433W",
            "timezone": "Africa/Accra",
            "type": "settlement"
        }
    },
    "{'lat': '48.85341N', 'lon': '2.3488E'}": {
        "error": "",
        "response": {
            "name": "Paris",
            "place_id": "paris",
            "adm_area1": "Île-de-France Region",
            "adm_area2": "Paris",
            "country": "France",
            "lat": "48.85341N",
            "lon": "2.3488E",
            "timezone": "Europe/Paris",
            "type": "settlement"
        }
    },
    "{'lat': '48.85341', 'lon': '2.3488'}": {
        "error": "",
        "response": {
            "name": "Paris",
            "place_id": "paris",
            "adm_area1": "Île-de-France Region",
            "adm_area2": "Paris",
            "country": "France",
            "lat": "48.85341N",
            "lon": "2.3488E",
            "timezone": "Europe/Paris",
            "type": "settlement"
        }
    },
    "{'lat': '-24.93209', 'lon': '30.80946'}": {
        "error": "",
        "response": {
            "name": "Graskop",
            "place_id": "graskop-1000352",
            "adm_area1": "Mpumalanga",
            "adm_area2": "Ehlanzeni District",
            "country": "South Africa",
            "lat": "24.93144S",
            "lon": "30.84191E",
            "timezone": "Africa/Johannesburg",
            "type": "settlement"
        }
    },
    "{'lat': '45.123N', 'lon': '78.456W'}": {
        "error": "",
        "response": {
            "name": "Harburn",
            "place_id": "harburn-5970646",
            "adm_area1": "Ontario",
            "adm_area2": null,
            "country": "Canada",
            "lat": "45.12566N",
            "lon": "78.42084W",
            "timezone": "America/Toronto",
            "type": "settlement"
        }
    },
    "{'lat': '37.7749', 'lon': '-122.4194'}": {
        "error": "",
        "response": {
            "name": "San Francisco",
            "place_id": "san-francisco",
            "adm_area1": "California",
            "adm_area2": "San Francisco County",
            "country": "United States of America",
            "lat": "37.77493N",
            "lon": "122.41942W",
            "timezone": "America/Los_Angeles",
            "type": "settlement"
        }
    },
    "{'lat': '-37.8136', 'lon': '144.9631'}": {
        "error": "",
        "response": {
            "name": "Melbourne",
            "place_id": "melbourne",
            "adm_area1": "Victoria",
            "adm_area2": "Melbourne",
            "country": "Australia",
            "lat": "37.814S",
            "lon": "144.96332E",
            "timezone": "Australia/Melbourne",
            "type": "settlement"
        }
    },
    "{'lat': '37.814S', 'lon': '144.96332E'}": {
        "error": "",
        "response": {
            "name": "Melbourne",
            "place_id": "melbourne",
            "adm_area1": "Victoria",
            "adm_area2": "Melbourne",
            "country": "Australia",
            "lat": "37.814S",
            "lon": "144.96332E",
            "timezone": "Australia/Melbourne",
            "type": "settlement"
        }
    },
    "{'lat': '37.7749N', 'lon': '122.4194W', 'language': 'en'}": {
        "error": "",
        "response": {
            "name": "San Francisco",
            "place_id": "san-francisco",
            "adm_area1": "California",
            "adm_area2": "San Francisco County",
            "country": "United States of America",
            "lat": "37.77493N",
            "lon": "122.41942W",
            "timezone": "America/Los_Angeles",
            "type": "settlement"
        }
    },
    "{'lat': '-24.93209S', 'lon': '30.80946E'}": {
        "error": "",
        "response": {
            "name": "Jurmashīn",
            "place_id": "jurmashin-356483",
            "adm_area1": "New Valley Governorate",
            "adm_area2": null,
            "country": "Egypt",
            "lat": "24.88099N",
            "lon": "30.56442E",
            "timezone": "Africa/Cairo",
            "type": "settlement"
        }
    },
    "{'lat': '24.93209S', 'lon': '30.80946E'}": {
        "error": "",
        "response": {
            "name": "Graskop",
            "place_id": "graskop-1000352",
            "adm_area1": "Mpumalanga",
            "adm_area2": "Ehlanzeni District",
            "country": "South Africa",
            "lat": "24.93144S",
            "lon": "30.84191E",
            "timezone": "Africa/Johannesburg",
            "type": "settlement"
        }
    },
    "{'lat': '37.7452N', 'lon': '119.59822W'}": {
        "error": "",
        "response": {
            "name": "Yosemite Village",
            "place_id": "yosemite-village-5410974",
            "adm_area1": "California",
            "adm_area2": "Mariposa",
            "country": "United States of America",
            "lat": "37.7452N",
            "lon": "119.59822W",
            "timezone": "America/Los_Angeles",
            "type": "settlement"
        }
    },
    "{'lat': '-24.93209S', 'lon': '30.80946E', 'language': 'en'}": {
        "error": "",
        "response": {
            "name": "Jurmashīn",
            "place_id": "jurmashin-356483",
            "adm_area1": "New Valley Governorate",
            "adm_area2": null,
            "country": "Egypt",
            "lat": "24.88099N",
            "lon": "30.56442E",
            "timezone": "Africa/Cairo",
            "type": "settlement"
        }
    },
    "{'lat': '44.71161', 'lon': '-63.89806'}": {
        "error": "",
        "response": {
            "name": "Upper Tantallon",
            "place_id": "upper-tantallon-6172669",
            "adm_area1": "Nova Scotia",
            "adm_area2": null,
            "country": "Canada",
            "lat": "44.68781N",
            "lon": "63.87781W",
            "timezone": "America/Halifax",
            "type": "settlement"
        }
    },
    "{'lat': '35.6895', 'lon': '139.6917'}": {
        "error": "",
        "response": {
            "name": "Tokyo",
            "place_id": "tokyo",
            "adm_area1": "Tokyo",
            "adm_area2": null,
            "country": "Japan",
            "lat": "35.6895N",
            "lon": "139.69171E",
            "timezone": "Asia/Tokyo",
            "type": "settlement"
        }
    },
    "{'lat': '35.6895N', 'lon': '139.6917E'}": {
        "error": "",
        "response": {
            "name": "Tokyo",
            "place_id": "tokyo",
            "adm_area1": "Tokyo",
            "adm_area2": null,
            "country": "Japan",
            "lat": "35.6895N",
            "lon": "139.69171E",
            "timezone": "Asia/Tokyo",
            "type": "settlement"
        }
    },
    "{'lon': '123.456', 'lat': '45.678'}": {
        "error": "",
        "response": {
            "name": "Zoulizhitun",
            "place_id": "zoulizhitun-10873389",
            "adm_area1": "Jilin",
            "adm_area2": null,
            "country": "China",
            "lat": "45.68043N",
            "lon": "123.4758E",
            "timezone": "Asia/Shanghai",
            "type": "settlement"
        }
    },
    "{'lat': '21.3069N', 'lon': '157.8583W', 'language': 'en'}": {
        "error": "",
        "response": {
            "name": "Honolulu",
            "place_id": "honolulu",
            "adm_area1": "Hawaii",
            "adm_area2": "Honolulu County",
            "country": "United States of America",
            "lat": "21.30694N",
            "lon": "157.85833W",
            "timezone": "Pacific/Honolulu",
            "type": "settlement"
        }
    },
    "{'lat': '43.6532N', 'lon': '79.3832W', 'language': 'en'}": {
        "error": "",
        "response": {
            "name": "Downtown Toronto",
            "place_id": "downtown-toronto-6167863",
            "adm_area1": "Ontario",
            "adm_area2": null,
            "country": "Canada",
            "lat": "43.65011N",
            "lon": "79.3829W",
            "timezone": "America/Toronto",
            "type": "settlement"
        }
    },
    "{'lon': '-73.9857', 'lat': '40.7484'}": {
        "error": "",
        "response": {
            "name": "Koreatown",
            "place_id": "koreatown-8410791",
            "adm_area1": "New York",
            "adm_area2": "New York County",
            "country": "United States of America",
            "lat": "40.75061N",
            "lon": "73.98768W",
            "timezone": "America/New_York",
            "type": "settlement"
        }
    },
    "{'lat': '21.3069N', 'lon': '157.8583W'}": {
        "error": "",
        "response": {
            "name": "Honolulu",
            "place_id": "honolulu",
            "adm_area1": "Hawaii",
            "adm_area2": "Honolulu County",
            "country": "United States of America",
            "lat": "21.30694N",
            "lon": "157.85833W",
            "timezone": "Pacific/Honolulu",
            "type": "settlement"
        }
    },
    "{'lat': 'latitude', 'lon': 'longitude'}": {
        "error": "",
        "response": {
            "detail": "Wrong value of latitude"
        }
    },
    "{'lat': '40.7128', 'lon': '74.0060'}": {
        "error": "",
        "response": {
            "name": "Oyalma",
            "place_id": "oyalma-1527523",
            "adm_area1": null,
            "adm_area2": null,
            "country": "Kyrgyzstan",
            "lat": "40.65596N",
            "lon": "73.95164E",
            "timezone": "Asia/Bishkek",
            "type": "settlement"
        }
    },
    "{'lat': '40.7128', 'lon': '-74.0060'}": {
        "error": "",
        "response": {
            "name": "New York",
            "place_id": "new-york-city",
            "adm_area1": "New York",
            "adm_area2": null,
            "country": "United States of America",
            "lat": "40.71427N",
            "lon": "74.00597W",
            "timezone": "America/New_York",
            "type": "settlement"
        }
    },
    "{'lat': '51.50853N', 'lon': '0.12574W'}": {
        "error": "",
        "response": {
            "name": "London",
            "place_id": "london",
            "adm_area1": "England",
            "adm_area2": "Greater London",
            "country": "United Kingdom",
            "lat": "51.50853N",
            "lon": "0.12574W",
            "timezone": "Europe/London",
            "type": "settlement"
        }
    },
    "{'lat': '21.3069', 'lon': '-157.8583'}": {
        "error": "",
        "response": {
            "name": "Honolulu",
            "place_id": "honolulu",
            "adm_area1": "Hawaii",
            "adm_area2": "Honolulu County",
            "country": "United States of America",
            "lat": "21.30694N",
            "lon": "157.85833W",
            "timezone": "Pacific/Honolulu",
            "type": "settlement"
        }
    },
    "{'lat': '21.3049', 'lon': '-157.858'}": {
        "error": "",
        "response": {
            "name": "Honolulu",
            "place_id": "honolulu",
            "adm_area1": "Hawaii",
            "adm_area2": "Honolulu County",
            "country": "United States of America",
            "lat": "21.30694N",
            "lon": "157.85833W",
            "timezone": "Pacific/Honolulu",
            "type": "settlement"
        }
    },
    "{'lat': 'latitude_placeholder', 'lon': 'longitude_placeholder'}": {
        "error": "",
        "response": {
            "detail": "Wrong value of latitude"
        }
    },
    "{'lat': '21.3049', 'lon': '-157.858', 'language': 'en'}": {
        "error": "",
        "response": {
            "name": "Honolulu",
            "place_id": "honolulu",
            "adm_area1": "Hawaii",
            "adm_area2": "Honolulu County",
            "country": "United States of America",
            "lat": "21.30694N",
            "lon": "157.85833W",
            "timezone": "Pacific/Honolulu",
            "type": "settlement"
        }
    },
    "{'lon': '-122.4194', 'lat': '37.7749'}": {
        "error": "",
        "response": {
            "name": "San Francisco",
            "place_id": "san-francisco",
            "adm_area1": "California",
            "adm_area2": "San Francisco County",
            "country": "United States of America",
            "lat": "37.77493N",
            "lon": "122.41942W",
            "timezone": "America/Los_Angeles",
            "type": "settlement"
        }
    },
    "{'lon': '-122.084', 'lat': '37.422'}": {
        "error": "",
        "response": {
            "name": "Rex Manor",
            "place_id": "rex-manor-8479299",
            "adm_area1": "California",
            "adm_area2": "Santa Clara County",
            "country": "United States of America",
            "lat": "37.40556N",
            "lon": "122.08611W",
            "timezone": "America/Los_Angeles",
            "type": "settlement"
        }
    },
    "{'lat': '36.0544', 'lon': '-112.1401'}": {
        "error": "",
        "response": {
            "name": "Grand Canyon",
            "place_id": "grand-canyon",
            "adm_area1": "Arizona",
            "adm_area2": "Coconino County",
            "country": "United States of America",
            "lat": "36.05443N",
            "lon": "112.13934W",
            "timezone": "America/Phoenix",
            "type": "settlement"
        }
    },
    "{'lat': '37.7749', 'lon': '-122.4194', 'language': 'en'}": {
        "error": "",
        "response": {
            "name": "San Francisco",
            "place_id": "san-francisco",
            "adm_area1": "California",
            "adm_area2": "San Francisco County",
            "country": "United States of America",
            "lat": "37.77493N",
            "lon": "122.41942W",
            "timezone": "America/Los_Angeles",
            "type": "settlement"
        }
    },
    "{'lon': 'longitude', 'lat': 'latitude'}": {
        "error": "",
        "response": {
            "detail": "Wrong value of latitude"
        }
    },
    "{'lat': '21.3069', 'lon': '-157.8583', 'language': 'en'}": {
        "error": "",
        "response": {
            "name": "Honolulu",
            "place_id": "honolulu",
            "adm_area1": "Hawaii",
            "adm_area2": "Honolulu County",
            "country": "United States of America",
            "lat": "21.30694N",
            "lon": "157.85833W",
            "timezone": "Pacific/Honolulu",
            "type": "settlement"
        }
    },
    "{'lat': '30.36667N', 'lon': '108.25W'}": {
        "error": "",
        "response": {
            "name": "Restaurante Los Lobos",
            "place_id": "restaurante-los-lobos-3997549",
            "adm_area1": "Chihuahua",
            "adm_area2": "Casas Grandes",
            "country": "Mexico",
            "lat": "30.36667N",
            "lon": "108.25W",
            "timezone": "America/Chihuahua",
            "type": "settlement"
        }
    },
    "{'lat': 'latitude_value', 'lon': 'longitude_value'}": {
        "error": "",
        "response": {
            "detail": "Wrong value of latitude"
        }
    },
    "{'lat': '40.7128N', 'lon': '74.0060W', 'language': 'en'}": {
        "error": "",
        "response": {
            "name": "New York",
            "place_id": "new-york-city",
            "adm_area1": "New York",
            "adm_area2": null,
            "country": "United States of America",
            "lat": "40.71427N",
            "lon": "74.00597W",
            "timezone": "America/New_York",
            "type": "settlement"
        }
    },
    "{'lat': 'latitude_of_dinner_location', 'lon': 'longitude_of_dinner_location'}": {
        "error": "",
        "response": {
            "detail": "Wrong value of latitude"
        }
    },
    "{'lon': '<longitude>', 'lat': '<latitude>', 'language': 'en'}": {
        "error": "",
        "response": {
            "detail": "Wrong value of latitude"
        }
    },
    "{'lat': '37.77493N', 'lon': '122.41942W'}": {
        "error": "",
        "response": {
            "name": "San Francisco",
            "place_id": "san-francisco",
            "adm_area1": "California",
            "adm_area2": "San Francisco County",
            "country": "United States of America",
            "lat": "37.77493N",
            "lon": "122.41942W",
            "timezone": "America/Los_Angeles",
            "type": "settlement"
        }
    },
    "{'lat': '37.77493N', 'lon': '122.41942W', 'language': 'en'}": {
        "error": "",
        "response": {
            "name": "San Francisco",
            "place_id": "san-francisco",
            "adm_area1": "California",
            "adm_area2": "San Francisco County",
            "country": "United States of America",
            "lat": "37.77493N",
            "lon": "122.41942W",
            "timezone": "America/Los_Angeles",
            "type": "settlement"
        }
    },
    "{'lat': '37.77493', 'lon': '-122.41942', 'language': 'en'}": {
        "error": "",
        "response": {
            "name": "San Francisco",
            "place_id": "san-francisco",
            "adm_area1": "California",
            "adm_area2": "San Francisco County",
            "country": "United States of America",
            "lat": "37.77493N",
            "lon": "122.41942W",
            "timezone": "America/Los_Angeles",
            "type": "settlement"
        }
    },
    "{'lon': '21.3069', 'lat': '-157.8583', 'language': 'en'}": {
        "error": "",
        "response": {
            "detail": "Wrong value of latitude"
        }
    },
    "{'lon': '21.3069', 'lat': '-157.8583'}": {
        "error": "",
        "response": {
            "detail": "Wrong value of latitude"
        }
    },
    "{'lon': '-157.8583', 'lat': '21.3069', 'language': 'en'}": {
        "error": "",
        "response": {
            "name": "Honolulu",
            "place_id": "honolulu",
            "adm_area1": "Hawaii",
            "adm_area2": "Honolulu County",
            "country": "United States of America",
            "lat": "21.30694N",
            "lon": "157.85833W",
            "timezone": "Pacific/Honolulu",
            "type": "settlement"
        }
    },
    "{'lat': 'latitude of the dinner location', 'lon': 'longitude of the dinner location'}": {
        "error": "",
        "response": {
            "detail": "Wrong value of latitude"
        }
    },
    "{'lat': 'latitude of a different location', 'lon': 'longitude of a different location'}": {
        "error": "",
        "response": {
            "detail": "Wrong value of latitude"
        }
    },
    "{'lon': 'longitude of dinner location', 'lat': 'latitude of dinner location'}": {
        "error": "",
        "response": {
            "detail": "Wrong value of latitude"
        }
    },
    "{'lat': '39.9526', 'lon': '-75.1652'}": {
        "error": "",
        "response": {
            "name": "Philadelphia",
            "place_id": "philadelphia",
            "adm_area1": "Pennsylvania",
            "adm_area2": "Philadelphia",
            "country": "United States of America",
            "lat": "39.95233N",
            "lon": "75.16379W",
            "timezone": "America/New_York",
            "type": "settlement"
        }
    },
    "{'lat': '39.9526N', 'lon': '75.1652W', 'language': 'en'}": {
        "error": "",
        "response": {
            "name": "Philadelphia",
            "place_id": "philadelphia",
            "adm_area1": "Pennsylvania",
            "adm_area2": "Philadelphia",
            "country": "United States of America",
            "lat": "39.95233N",
            "lon": "75.16379W",
            "timezone": "America/New_York",
            "type": "settlement"
        }
    },
    "{'lat': '21.30694N', 'lon': '157.85833W', 'language': 'en'}": {
        "error": "",
        "response": {
            "name": "Honolulu",
            "place_id": "honolulu",
            "adm_area1": "Hawaii",
            "adm_area2": "Honolulu County",
            "country": "United States of America",
            "lat": "21.30694N",
            "lon": "157.85833W",
            "timezone": "Pacific/Honolulu",
            "type": "settlement"
        }
    },
    "{'lat': 'updated_latitude', 'lon': 'longitude'}": {
        "error": "",
        "response": {
            "detail": "Wrong value of latitude"
        }
    },
    "{'lon': '-74.0059', 'lat': '40.7128', 'language': 'en'}": {
        "error": "",
        "response": {
            "name": "New York",
            "place_id": "new-york-city",
            "adm_area1": "New York",
            "adm_area2": null,
            "country": "United States of America",
            "lat": "40.71427N",
            "lon": "74.00597W",
            "timezone": "America/New_York",
            "type": "settlement"
        }
    },
    "{'lat': '37.81021', 'lon': '-122.42282', 'language': 'en'}": {
        "error": "",
        "response": {
            "name": "Fisherman's Warf",
            "place_id": "fishermans-warf-11809031",
            "adm_area1": "California",
            "adm_area2": "San Francisco County",
            "country": "United States of America",
            "lat": "37.808N",
            "lon": "122.41774W",
            "timezone": "America/Los_Angeles",
            "type": "settlement"
        }
    },
    "{'lon': '-157.8583', 'lat': '21.3069'}": {
        "error": "",
        "response": {
            "name": "Honolulu",
            "place_id": "honolulu",
            "adm_area1": "Hawaii",
            "adm_area2": "Honolulu County",
            "country": "United States of America",
            "lat": "21.30694N",
            "lon": "157.85833W",
            "timezone": "Pacific/Honolulu",
            "type": "settlement"
        }
    },
    "{'lat': '40.7128N', 'lon': '74.0060E'}": {
        "error": "",
        "response": {
            "name": "Oyalma",
            "place_id": "oyalma-1527523",
            "adm_area1": null,
            "adm_area2": null,
            "country": "Kyrgyzstan",
            "lat": "40.65596N",
            "lon": "73.95164E",
            "timezone": "Asia/Bishkek",
            "type": "settlement"
        }
    },
    "{'lon': '[longitude of dinner location]', 'lat': '[latitude of dinner location]'}": {
        "error": "",
        "response": {
            "detail": "Wrong value of latitude"
        }
    },
    "{'lat': '[latitude]', 'lon': '[longitude]', 'language': 'en'}": {
        "error": "",
        "response": {
            "detail": "Wrong value of latitude"
        }
    },
    "{'lat': '40.7128', 'lon': '-74.0060', 'language': 'en'}": {
        "error": "",
        "response": {
            "name": "New York",
            "place_id": "new-york-city",
            "adm_area1": "New York",
            "adm_area2": null,
            "country": "United States of America",
            "lat": "40.71427N",
            "lon": "74.00597W",
            "timezone": "America/New_York",
            "type": "settlement"
        }
    },
    "{'lat': '<dinner_location_lat>', 'lon': '<dinner_location_lon>'}": {
        "error": "",
        "response": {
            "detail": "Wrong value of latitude"
        }
    },
    "{'lat': '<dinner_location_latitude>', 'lon': '<dinner_location_longitude>'}": {
        "error": "",
        "response": {
            "detail": "Wrong value of latitude"
        }
    },
    "{'lon': '21.3070', 'lat': '-157.8583'}": {
        "error": "",
        "response": {
            "detail": "Wrong value of latitude"
        }
    },
    "{'lat': '21.3069N', 'lon': '-157.8583W'}": {
        "error": "",
        "response": {
            "name": "Wake",
            "place_id": "wake-11695315",
            "adm_area1": "Wake Island",
            "adm_area2": null,
            "country": "U.S. Minor Outlying Islands",
            "lat": "19.30434N",
            "lon": "166.63612E",
            "timezone": "Pacific/Wake",
            "type": "settlement"
        }
    },
    "{'lat': 'latitude', 'lon': 'longitude', 'language': 'en'}": {
        "error": "",
        "response": {
            "detail": "Wrong value of latitude"
        }
    },
    "{'lat': '41.8781N', 'lon': '87.6298W'}": {
        "error": "",
        "response": {
            "name": "Loop",
            "place_id": "chicago-loop",
            "adm_area1": "Illinois",
            "adm_area2": "Cook",
            "country": "United States of America",
            "lat": "41.88407N",
            "lon": "87.6333W",
            "timezone": "America/Chicago",
            "type": "settlement"
        }
    },
    "{'lat': 'LATITUDE', 'lon': 'LONGITUDE'}": {
        "error": "",
        "response": {
            "detail": "Wrong value of latitude"
        }
    },
    "{'lat': '34.0522N', 'lon': '118.2437W', 'language': 'en'}": {
        "error": "",
        "response": {
            "name": "Los Angeles",
            "place_id": "los-angeles",
            "adm_area1": "California",
            "adm_area2": "Los Angeles",
            "country": "United States of America",
            "lat": "34.05223N",
            "lon": "118.24368W",
            "timezone": "America/Los_Angeles",
            "type": "settlement"
        }
    },
    "{'lat': '12.9715987', 'lon': '77.5945627', 'language': 'en'}": {
        "error": "",
        "response": {
            "name": "Dobbespet",
            "place_id": "dobbespet-8986043",
            "adm_area1": "Karnataka",
            "adm_area2": "Bengaluru Urban",
            "country": "India",
            "lat": "12.97161N",
            "lon": "77.59455E",
            "timezone": "Asia/Kolkata",
            "type": "settlement"
        }
    },
    "{'lon': '43.6532', 'lat': '-79.3832', 'language': 'en'}": {
        "error": "",
        "response": {
            "name": "Fairbairn Settlement",
            "place_id": "fairbairn-settlement-9180927",
            "adm_area1": "Western Cape",
            "adm_area2": null,
            "country": "South Africa",
            "lat": "46.87618S",
            "lon": "37.85949E",
            "timezone": "Africa/Johannesburg",
            "type": "settlement"
        }
    },
    "{'lat': '34.0522N', 'lon': '118.2437W'}": {
        "error": "",
        "response": {
            "name": "Los Angeles",
            "place_id": "los-angeles",
            "adm_area1": "California",
            "adm_area2": "Los Angeles",
            "country": "United States of America",
            "lat": "34.05223N",
            "lon": "118.24368W",
            "timezone": "America/Los_Angeles",
            "type": "settlement"
        }
    },
    "{'lon': 'longitude value', 'lat': 'latitude value'}": {
        "error": "",
        "response": {
            "detail": "Wrong value of latitude"
        }
    },
    "{'lon': '40.7128', 'lat': '74.0060'}": {
        "error": "",
        "response": {
            "name": "Svyatonosskiy Mayak",
            "place_id": "svyatonosskiy-mayak-857385",
            "adm_area1": "Murmansk",
            "adm_area2": null,
            "country": "Russia",
            "lat": "68.14996N",
            "lon": "39.7495E",
            "timezone": "Europe/Moscow",
            "type": "settlement"
        }
    },
    "{'lon': '<longitude>', 'lat': '<updated_latitude>'}": {
        "error": "",
        "response": {
            "detail": "Wrong value of latitude"
        }
    },
    "{'lat': '21.30694', 'lon': '-157.85833', 'language': 'en'}": {
        "error": "",
        "response": {
            "name": "Honolulu",
            "place_id": "honolulu",
            "adm_area1": "Hawaii",
            "adm_area2": "Honolulu County",
            "country": "United States of America",
            "lat": "21.30694N",
            "lon": "157.85833W",
            "timezone": "Pacific/Honolulu",
            "type": "settlement"
        }
    },
    "{'lon': '40.7128', 'lat': '74.0060', 'language': 'en'}": {
        "error": "",
        "response": {
            "name": "Svyatonosskiy Mayak",
            "place_id": "svyatonosskiy-mayak-857385",
            "adm_area1": "Murmansk",
            "adm_area2": null,
            "country": "Russia",
            "lat": "68.14996N",
            "lon": "39.7495E",
            "timezone": "Europe/Moscow",
            "type": "settlement"
        }
    },
    "{'lon': '-73.9857', 'lat': '40.7484', 'language': 'en'}": {
        "error": "",
        "response": {
            "name": "Koreatown",
            "place_id": "koreatown-8410791",
            "adm_area1": "New York",
            "adm_area2": "New York County",
            "country": "United States of America",
            "lat": "40.75061N",
            "lon": "73.98768W",
            "timezone": "America/New_York",
            "type": "settlement"
        }
    },
    "{'lat': '40.7128', 'lon': '-74.006', 'language': 'en'}": {
        "error": "",
        "response": {
            "name": "New York",
            "place_id": "new-york-city",
            "adm_area1": "New York",
            "adm_area2": null,
            "country": "United States of America",
            "lat": "40.71427N",
            "lon": "74.00597W",
            "timezone": "America/New_York",
            "type": "settlement"
        }
    },
    "{'lon': '2.3522E', 'lat': '48.8566N', 'language': 'en'}": {
        "error": "",
        "response": {
            "name": "Saint-Merri",
            "place_id": "saintmerri-2978048",
            "adm_area1": "Île-de-France Region",
            "adm_area2": "Paris",
            "country": "France",
            "lat": "48.85923N",
            "lon": "2.35214E",
            "timezone": "Europe/Paris",
            "type": "settlement"
        }
    },
    "{'lat': '40.71427N', 'lon': '74.00597W', 'language': 'en'}": {
        "error": "",
        "response": {
            "name": "New York",
            "place_id": "new-york-city",
            "adm_area1": "New York",
            "adm_area2": null,
            "country": "United States of America",
            "lat": "40.71427N",
            "lon": "74.00597W",
            "timezone": "America/New_York",
            "type": "settlement"
        }
    },
    "{'lon': '-74.0060', 'lat': '40.7128'}": {
        "error": "",
        "response": {
            "name": "New York",
            "place_id": "new-york-city",
            "adm_area1": "New York",
            "adm_area2": null,
            "country": "United States of America",
            "lat": "40.71427N",
            "lon": "74.00597W",
            "timezone": "America/New_York",
            "type": "settlement"
        }
    },
    "{'lat': '38.907192', 'lon': '-77.037817'}": {
        "error": "",
        "response": {
            "name": "Dupont Circle",
            "place_id": "dupont-circle-4138321",
            "adm_area1": "District of Columbia",
            "adm_area2": "Washington",
            "country": "United States of America",
            "lat": "38.90844N",
            "lon": "77.04414W",
            "timezone": "America/New_York",
            "type": "settlement"
        }
    },
    "{'lat': '38.5244', 'lon': '-102.5102', 'language': 'en'}": {
        "error": "",
        "response": {
            "name": "Chivington",
            "place_id": "chivington-5416968",
            "adm_area1": "Colorado",
            "adm_area2": "Kiowa",
            "country": "United States of America",
            "lat": "38.4364N",
            "lon": "102.54352W",
            "timezone": "America/Denver",
            "type": "settlement"
        }
    },
    "{'lat': '38.4364', 'lon': '-102.54352', 'language': 'en'}": {
        "error": "",
        "response": {
            "name": "Chivington",
            "place_id": "chivington-5416968",
            "adm_area1": "Colorado",
            "adm_area2": "Kiowa",
            "country": "United States of America",
            "lat": "38.4364N",
            "lon": "102.54352W",
            "timezone": "America/Denver",
            "type": "settlement"
        }
    },
    "{'lat': '38.4364', 'lon': '-102.5435', 'language': 'en'}": {
        "error": "",
        "response": {
            "name": "Chivington",
            "place_id": "chivington-5416968",
            "adm_area1": "Colorado",
            "adm_area2": "Kiowa",
            "country": "United States of America",
            "lat": "38.4364N",
            "lon": "102.54352W",
            "timezone": "America/Denver",
            "type": "settlement"
        }
    },
    "{'lat': 'lat_value', 'lon': 'lon_value'}": {
        "error": "",
        "response": {
            "detail": "Wrong value of latitude"
        }
    },
    "{'lat': '47.6062', 'lon': '-122.3321'}": {
        "error": "",
        "response": {
            "name": "Seattle",
            "place_id": "seattle",
            "adm_area1": "Washington",
            "adm_area2": "King",
            "country": "United States of America",
            "lat": "47.60621N",
            "lon": "122.33207W",
            "timezone": "America/Los_Angeles",
            "type": "settlement"
        }
    },
    "{'lat': '40.712776', 'lon': '-74.005974'}": {
        "error": "",
        "response": {
            "name": "New York",
            "place_id": "new-york-city",
            "adm_area1": "New York",
            "adm_area2": null,
            "country": "United States of America",
            "lat": "40.71427N",
            "lon": "74.00597W",
            "timezone": "America/New_York",
            "type": "settlement"
        }
    },
    "{'lat': '34.052235', 'lon': '-118.243683'}": {
        "error": "",
        "response": {
            "name": "Los Angeles",
            "place_id": "los-angeles",
            "adm_area1": "California",
            "adm_area2": "Los Angeles",
            "country": "United States of America",
            "lat": "34.05223N",
            "lon": "118.24368W",
            "timezone": "America/Los_Angeles",
            "type": "settlement"
        }
    },
    "{'lat': '48.8566N', 'lon': '2.3522E'}": {
        "error": "",
        "response": {
            "name": "Saint-Merri",
            "place_id": "saintmerri-2978048",
            "adm_area1": "Île-de-France Region",
            "adm_area2": "Paris",
            "country": "France",
            "lat": "48.85923N",
            "lon": "2.35214E",
            "timezone": "Europe/Paris",
            "type": "settlement"
        }
    },
    "{'lat': '-25.070', 'lon': '30.809'}": {
        "error": "",
        "response": {
            "name": "Rietfontein",
            "place_id": "rietfontein-961936",
            "adm_area1": "Mpumalanga",
            "adm_area2": "Ehlanzeni District",
            "country": "South Africa",
            "lat": "25.08259S",
            "lon": "30.82754E",
            "timezone": "Africa/Johannesburg",
            "type": "settlement"
        }
    },
    "{'lat': '-25.07', 'lon': '30.809'}": {
        "error": "",
        "response": {
            "name": "Rietfontein",
            "place_id": "rietfontein-961936",
            "adm_area1": "Mpumalanga",
            "adm_area2": "Ehlanzeni District",
            "country": "South Africa",
            "lat": "25.08259S",
            "lon": "30.82754E",
            "timezone": "Africa/Johannesburg",
            "type": "settlement"
        }
    },
    "{'lat': '-25.07S', 'lon': '30.809E'}": {
        "error": "",
        "response": {
            "name": "Filasţīn",
            "place_id": "filastin-12196710",
            "adm_area1": "New Valley Governorate",
            "adm_area2": null,
            "country": "Egypt",
            "lat": "24.9966N",
            "lon": "30.56037E",
            "timezone": "Africa/Cairo",
            "type": "settlement"
        }
    },
    "{'lat': '37.8651', 'lon': '-119.5383'}": {
        "error": "",
        "response": {
            "name": "White Wolf",
            "place_id": "white-wolf-5408939",
            "adm_area1": "California",
            "adm_area2": "Tuolumne",
            "country": "United States of America",
            "lat": "37.86937N",
            "lon": "119.65017W",
            "timezone": "America/Los_Angeles",
            "type": "settlement"
        }
    },
    "{'lat': '37.8651N', 'lon': '119.5383W', 'language': 'en'}": {
        "error": "",
        "response": {
            "name": "White Wolf",
            "place_id": "white-wolf-5408939",
            "adm_area1": "California",
            "adm_area2": "Tuolumne",
            "country": "United States of America",
            "lat": "37.86937N",
            "lon": "119.65017W",
            "timezone": "America/Los_Angeles",
            "type": "settlement"
        }
    },
    "{'lat': '51.1657', 'lon': '10.4515'}": {
        "error": "",
        "response": {
            "name": "Niederdorla",
            "place_id": "niederdorla",
            "adm_area1": "Free State of Thuringia",
            "adm_area2": null,
            "country": "Germany",
            "lat": "51.16025N",
            "lon": "10.4482E",
            "timezone": "Europe/Berlin",
            "type": "settlement"
        }
    },
    "{'lon': '13', 'lat': '51'}": {
        "error": "",
        "response": {
            "name": "Weißthal",
            "place_id": "weissthal-2811699",
            "adm_area1": "Saxony",
            "adm_area2": null,
            "country": "Germany",
            "lat": "51.0N",
            "lon": "13.0E",
            "timezone": "Europe/Berlin",
            "type": "settlement"
        }
    },
    "{'lon': '9.6833', 'lat': '51.2167'}": {
        "error": "",
        "response": {
            "name": "Fürstenhagen",
            "place_id": "fuerstenhagen-2923619",
            "adm_area1": "Hesse",
            "adm_area2": "Regierungsbezirk Kassel",
            "country": "Germany",
            "lat": "51.21097N",
            "lon": "9.68978E",
            "timezone": "Europe/Berlin",
            "type": "settlement"
        }
    },
    "{'lon': '9.7731', 'lat': '52.5200', 'language': 'en'}": {
        "error": "",
        "response": {
            "name": "Bissendorf-Wietze",
            "place_id": "bissendorfwietze-11611206",
            "adm_area1": "Lower Saxony",
            "adm_area2": null,
            "country": "Germany",
            "lat": "52.51661N",
            "lon": "9.78757E",
            "timezone": "Europe/Berlin",
            "type": "settlement"
        }
    },
    "{'lat': '36.106964', 'lon': '-112.112999'}": {
        "error": "",
        "response": {
            "name": "Grand Canyon",
            "place_id": "grand-canyon",
            "adm_area1": "Arizona",
            "adm_area2": "Coconino County",
            "country": "United States of America",
            "lat": "36.05443N",
            "lon": "112.13934W",
            "timezone": "America/Phoenix",
            "type": "settlement"
        }
    },
    "{'lon': '-112.1129', 'lat': '36.1069'}": {
        "error": "",
        "response": {
            "name": "Grand Canyon",
            "place_id": "grand-canyon",
            "adm_area1": "Arizona",
            "adm_area2": "Coconino County",
            "country": "United States of America",
            "lat": "36.05443N",
            "lon": "112.13934W",
            "timezone": "America/Phoenix",
            "type": "settlement"
        }
    },
    "{'lat': '46.91807N', 'lon': '104.00437W', 'language': 'en'}": {
        "error": "",
        "response": {
            "name": "Beach",
            "place_id": "beach",
            "adm_area1": "North Dakota",
            "adm_area2": "Golden Valley",
            "country": "United States of America",
            "lat": "46.91807N",
            "lon": "104.00437W",
            "timezone": "America/Denver",
            "type": "settlement"
        }
    },
    "{'lat': '27.94222N', 'lon': '110.64194W'}": {
        "error": "",
        "response": {
            "name": "La Casita de Campo [Restaurant]",
            "place_id": "la-casita-de-campo-restaurant-8944023",
            "adm_area1": "Sonora",
            "adm_area2": "Empalme Municipality",
            "country": "Mexico",
            "lat": "27.94222N",
            "lon": "110.64194W",
            "timezone": "America/Hermosillo",
            "type": "settlement"
        }
    },
    "{'lat': '-38.70375S', 'lon': '143.38763E'}": {
        "error": "",
        "response": {
            "name": "Sasu",
            "place_id": "sasu-2113625",
            "adm_area1": "Iwate",
            "adm_area2": null,
            "country": "Japan",
            "lat": "39.21667N",
            "lon": "141.93333E",
            "timezone": "Asia/Tokyo",
            "type": "settlement"
        }
    },
    "{'lon': '<restaurant_longitude>', 'lat': '<restaurant_latitude>'}": {
        "error": "",
        "response": {
            "detail": "Wrong value of latitude"
        }
    },
    "{'lon': '55.749465', 'lat': '37.623102'}": {
        "error": "",
        "response": {
            "name": "Āq Toqeh",
            "place_id": "aq-toqeh-9549",
            "adm_area1": "Golestan",
            "adm_area2": null,
            "country": "Iran",
            "lat": "37.62906N",
            "lon": "55.74057E",
            "timezone": "Asia/Tehran",
            "type": "settlement"
        }
    },
    "{'lon': '55.74057', 'lat': '37.62906'}": {
        "error": "",
        "response": {
            "name": "Āq Toqeh",
            "place_id": "aq-toqeh-9549",
            "adm_area1": "Golestan",
            "adm_area2": null,
            "country": "Iran",
            "lat": "37.62906N",
            "lon": "55.74057E",
            "timezone": "Asia/Tehran",
            "type": "settlement"
        }
    },
    "{'lon': '55.74057E', 'lat': '37.62906N'}": {
        "error": "",
        "response": {
            "name": "Āq Toqeh",
            "place_id": "aq-toqeh-9549",
            "adm_area1": "Golestan",
            "adm_area2": null,
            "country": "Iran",
            "lat": "37.62906N",
            "lon": "55.74057E",
            "timezone": "Asia/Tehran",
            "type": "settlement"
        }
    },
    "{'lat': '37.62906', 'lon': '55.74057'}": {
        "error": "",
        "response": {
            "name": "Āq Toqeh",
            "place_id": "aq-toqeh-9549",
            "adm_area1": "Golestan",
            "adm_area2": null,
            "country": "Iran",
            "lat": "37.62906N",
            "lon": "55.74057E",
            "timezone": "Asia/Tehran",
            "type": "settlement"
        }
    },
    "{'lat': '37.62906N', 'lon': '55.74057E'}": {
        "error": "",
        "response": {
            "name": "Āq Toqeh",
            "place_id": "aq-toqeh-9549",
            "adm_area1": "Golestan",
            "adm_area2": null,
            "country": "Iran",
            "lat": "37.62906N",
            "lon": "55.74057E",
            "timezone": "Asia/Tehran",
            "type": "settlement"
        }
    },
    "{'lat': '37.62906N', 'lon': '55.74057'}": {
        "error": "",
        "response": {
            "name": "Āq Toqeh",
            "place_id": "aq-toqeh-9549",
            "adm_area1": "Golestan",
            "adm_area2": null,
            "country": "Iran",
            "lat": "37.62906N",
            "lon": "55.74057E",
            "timezone": "Asia/Tehran",
            "type": "settlement"
        }
    },
    "{'lon': 'hiking trail longitude', 'lat': 'hiking trail latitude'}": {
        "error": "",
        "response": {
            "detail": "Wrong value of latitude"
        }
    },
    "{'lat': 'hiking trail latitude', 'lon': 'hiking trail longitude'}": {
        "error": "",
        "response": {
            "detail": "Wrong value of latitude"
        }
    },
    "{'lat': 'latitude of hiking trail', 'lon': 'longitude of hiking trail'}": {
        "error": "",
        "response": {
            "detail": "Wrong value of latitude"
        }
    },
    "{'lat': 'latitude of camping site', 'lon': 'longitude of camping site'}": {
        "error": "",
        "response": {
            "detail": "Wrong value of latitude"
        }
    },
    "{'lat': '42.42224N', 'lon': '87.8573W'}": {
        "error": "",
        "response": {
            "name": "Beach Park",
            "place_id": "beach-park",
            "adm_area1": "Illinois",
            "adm_area2": "Lake",
            "country": "United States of America",
            "lat": "42.42224N",
            "lon": "87.8573W",
            "timezone": "America/Chicago",
            "type": "settlement"
        }
    },
    "{'lon': '-87.8573', 'lat': '42.42224'}": {
        "error": "",
        "response": {
            "name": "Beach Park",
            "place_id": "beach-park",
            "adm_area1": "Illinois",
            "adm_area2": "Lake",
            "country": "United States of America",
            "lat": "42.42224N",
            "lon": "87.8573W",
            "timezone": "America/Chicago",
            "type": "settlement"
        }
    },
    "{'lat': 'latitude of dinner location', 'lon': 'longitude of dinner location'}": {
        "error": "",
        "response": {
            "detail": "Wrong value of latitude"
        }
    },
    "{'lat': '-38.70375', 'lon': '143.38763'}": {
        "error": "",
        "response": {
            "name": "Lavers Hill",
            "place_id": "lavers-hill-2160495",
            "adm_area1": "Victoria",
            "adm_area2": "Colac Otway",
            "country": "Australia",
            "lat": "38.66667S",
            "lon": "143.4E",
            "timezone": "Australia/Melbourne",
            "type": "settlement"
        }
    },
    "{'lon': '40.7128', 'lat': '-74.0060', 'language': 'en'}": {
        "error": "",
        "response": {
            "name": "Fairbairn Settlement",
            "place_id": "fairbairn-settlement-9180927",
            "adm_area1": "Western Cape",
            "adm_area2": null,
            "country": "South Africa",
            "lat": "46.87618S",
            "lon": "37.85949E",
            "timezone": "Africa/Johannesburg",
            "type": "settlement"
        }
    },
    "{'lat': '27.9878', 'lon': '-82.6875'}": {
        "error": "",
        "response": {
            "name": "Safety Harbor",
            "place_id": "safety-harbor",
            "adm_area1": "Florida",
            "adm_area2": "Pinellas",
            "country": "United States of America",
            "lat": "27.99085N",
            "lon": "82.69316W",
            "timezone": "America/New_York",
            "type": "settlement"
        }
    },
    "{'lat': 'xx.xxxx', 'lon': 'xx.xxxx'}": {
        "error": "",
        "response": {
            "detail": "Wrong value of latitude"
        }
    },
    "{'lon': '40.7128', 'lat': '-74.0060'}": {
        "error": "",
        "response": {
            "name": "Fairbairn Settlement",
            "place_id": "fairbairn-settlement-9180927",
            "adm_area1": "Western Cape",
            "adm_area2": null,
            "country": "South Africa",
            "lat": "46.87618S",
            "lon": "37.85949E",
            "timezone": "Africa/Johannesburg",
            "type": "settlement"
        }
    },
    "{'lat': '37.81021N', 'lon': '-122.42282E'}": {
        "error": "",
        "response": {
            "name": "Fisherman's Warf",
            "place_id": "fishermans-warf-11809031",
            "adm_area1": "California",
            "adm_area2": "San Francisco County",
            "country": "United States of America",
            "lat": "37.808N",
            "lon": "122.41774W",
            "timezone": "America/Los_Angeles",
            "type": "settlement"
        }
    },
    "{'lat': '35.6895N', 'lon': '139.69171E'}": {
        "error": "",
        "response": {
            "name": "Tokyo",
            "place_id": "tokyo",
            "adm_area1": "Tokyo",
            "adm_area2": null,
            "country": "Japan",
            "lat": "35.6895N",
            "lon": "139.69171E",
            "timezone": "Asia/Tokyo",
            "type": "settlement"
        }
    },
    "{'lon': '-157.8283', 'lat': '21.285'}": {
        "error": "",
        "response": {
            "name": "Waikīkī",
            "place_id": "waikiki-5854380",
            "adm_area1": "Hawaii",
            "adm_area2": "Honolulu County",
            "country": "United States of America",
            "lat": "21.2855N",
            "lon": "157.83594W",
            "timezone": "Pacific/Honolulu",
            "type": "settlement"
        }
    },
    "{'lat': '21.3', 'lon': '-157.8'}": {
        "error": "",
        "response": {
            "name": "Saint Louis Heights",
            "place_id": "saint-louis-heights-5853603",
            "adm_area1": "Hawaii",
            "adm_area2": "Honolulu County",
            "country": "United States of America",
            "lat": "21.29837N",
            "lon": "157.80393W",
            "timezone": "Pacific/Honolulu",
            "type": "settlement"
        }
    },
    "{'lon': '', 'lat': '', 'language': 'en'}": {
        "error": "",
        "response": {
            "detail": "Wrong value of latitude"
        }
    },
    "{'lon': '21.3069444', 'lat': '157.8583333', 'language': 'en'}": {
        "error": "",
        "response": {
            "detail": "Wrong value of latitude"
        }
    },
    "{'lon': '21.3069', 'lat': '157.8583', 'language': 'en'}": {
        "error": "",
        "response": {
            "detail": "Wrong value of latitude"
        }
    },
    "{'lon': '', 'lat': '', 'language': ''}": {
        "error": "",
        "response": {
            "detail": "Wrong value of latitude"
        }
    },
    "{'lat': '21.2730', 'lon': '-157.8260'}": {
        "error": "",
        "response": {
            "name": "Kapahulu",
            "place_id": "kapahulu-5848322",
            "adm_area1": "Hawaii",
            "adm_area2": "Honolulu County",
            "country": "United States of America",
            "lat": "21.27697N",
            "lon": "157.81127W",
            "timezone": "Pacific/Honolulu",
            "type": "settlement"
        }
    },
    "{'lat': 21.3069, 'lon': -157.8583}": {
        "error": "",
        "response": {
            "name": "Honolulu",
            "place_id": "honolulu",
            "adm_area1": "Hawaii",
            "adm_area2": "Honolulu County",
            "country": "United States of America",
            "lat": "21.30694N",
            "lon": "157.85833W",
            "timezone": "Pacific/Honolulu",
            "type": "settlement"
        }
    },
    "{'lat': '21.3N', 'lon': '157.8W'}": {
        "error": "",
        "response": {
            "name": "Saint Louis Heights",
            "place_id": "saint-louis-heights-5853603",
            "adm_area1": "Hawaii",
            "adm_area2": "Honolulu County",
            "country": "United States of America",
            "lat": "21.29837N",
            "lon": "157.80393W",
            "timezone": "Pacific/Honolulu",
            "type": "settlement"
        }
    }
}