{
    "{'ne_lat': 36.23998, 'ne_lng': -112.03577, 'sw_lat': 36.05183, 'sw_lng': -112.28311, 'show': 'webcams'}": {
        "error": "",
        "response": {
            "status": "OK",
            "result": {
                "offset": 0,
                "limit": 10,
                "total": 1,
                "webcams": [
                    {
                        "id": "1662501676",
                        "status": "active",
                        "title": "Grand Canyon Village"
                    }
                ]
            }
        }
    },
    "{'ne_lat': 36.106962, 'ne_lng': -112.097239, 'sw_lat': 36.054656, 'sw_lng': -112.166244, 'show': 'webcams'}": {
        "error": "",
        "response": {
            "status": "OK",
            "result": {
                "offset": 0,
                "limit": 10,
                "total": 1,
                "webcams": [
                    {
                        "id": "1662501676",
                        "status": "active",
                        "title": "Grand Canyon Village"
                    }
                ]
            }
        }
    },
    "{'ne_lat': 36.108642, 'ne_lng': -112.054848, 'sw_lat': 36.046095, 'sw_lng': -112.158967, 'show': 'webcams'}": {
        "error": "",
        "response": {
            "status": "OK",
            "result": {
                "offset": 0,
                "limit": 10,
                "total": 1,
                "webcams": [
                    {
                        "id": "1662501676",
                        "status": "active",
                        "title": "Grand Canyon Village"
                    }
                ]
            }
        }
    },
    "{'ne_lat': 36.106299, 'ne_lng': -112.112687, 'sw_lat': 35.886244, 'sw_lng': -112.211034, 'show': 'webcams'}": {
        "error": "",
        "response": {
            "status": "OK",
            "result": {
                "offset": 0,
                "limit": 10,
                "total": 1,
                "webcams": [
                    {
                        "id": "1662501676",
                        "status": "active",
                        "title": "Grand Canyon Village"
                    }
                ]
            }
        }
    },
    "{'ne_lat': 36.1133, 'ne_lng': -112.1089, 'sw_lat': 35.8817, 'sw_lng': -112.2205, 'show': 'webcams'}": {
        "error": "",
        "response": {
            "status": "OK",
            "result": {
                "offset": 0,
                "limit": 10,
                "total": 1,
                "webcams": [
                    {
                        "id": "1662501676",
                        "status": "active",
                        "title": "Grand Canyon Village"
                    }
                ]
            }
        }
    },
    "{'ne_lat': 36.2751, 'ne_lng': -112.1062, 'sw_lat': 36.0626, 'sw_lng': -112.2321, 'show': 'webcams'}": {
        "error": "",
        "response": {
            "status": "OK",
            "result": {
                "offset": 0,
                "limit": 10,
                "total": 0,
                "webcams": []
            }
        }
    },
    "{'ne_lat': 51.5074, 'ne_lng': -0.1278, 'sw_lat': 51.5074, 'sw_lng': -0.1278, 'lang': 'en'}": {
        "error": "",
        "response": {
            "status": "OK",
            "result": {
                "offset": 0,
                "limit": 10,
                "total": 0,
                "webcams": []
            }
        }
    },
    "{'ne_lat': 36.1175, 'ne_lng': -112.0896, 'sw_lat': 36.0796, 'sw_lng': -112.1568, 'show': 'webcams'}": {
        "error": "",
        "response": {
            "status": "OK",
            "result": {
                "offset": 0,
                "limit": 10,
                "total": 0,
                "webcams": []
            }
        }
    },
    "{'ne_lat': 36.249699, 'ne_lng': -112.07029, 'sw_lat': 35.928758, 'sw_lng': -112.154258, 'show': 'webcams'}": {
        "error": "",
        "response": {
            "status": "OK",
            "result": {
                "offset": 0,
                "limit": 10,
                "total": 1,
                "webcams": [
                    {
                        "id": "1662501676",
                        "status": "active",
                        "title": "Grand Canyon Village"
                    }
                ]
            }
        }
    },
    "{'ne_lat': 36.108333, 'ne_lng': -112.110833, 'sw_lat': 35.875556, 'sw_lng': -112.252778, 'show': 'webcams'}": {
        "error": "",
        "response": {
            "status": "OK",
            "result": {
                "offset": 0,
                "limit": 10,
                "total": 1,
                "webcams": [
                    {
                        "id": "1662501676",
                        "status": "active",
                        "title": "Grand Canyon Village"
                    }
                ]
            }
        }
    },
    "{'ne_lat': -23.7431405, 'ne_lng': 31.3909097, 'sw_lat': -25.5833862, 'sw_lng': 31.1194332}": {
        "error": "",
        "response": {
            "status": "OK",
            "result": {
                "offset": 0,
                "limit": 10,
                "total": 0,
                "webcams": []
            }
        }
    },
    "{'ne_lat': -23.8577, 'ne_lng': 31.0389, 'sw_lat': -25.45, 'sw_lng': 31.4977, 'lang': 'en'}": {
        "error": "",
        "response": {
            "status": "OK",
            "result": {
                "offset": 0,
                "limit": 10,
                "total": 0,
                "webcams": []
            }
        }
    },
    "{'ne_lat': 36.3634, 'ne_lng': -112.0018, 'sw_lat': 35.9613, 'sw_lng': -112.2275, 'lang': 'en', 'show': 'webcams'}": {
        "error": "",
        "response": {
            "status": "OK",
            "result": {
                "offset": 0,
                "limit": 10,
                "total": 1,
                "webcams": [
                    {
                        "id": "1662501676",
                        "status": "active",
                        "title": "Grand Canyon Village"
                    }
                ]
            }
        }
    },
    "{'ne_lat': 36.2913, 'ne_lng': -112.0, 'sw_lat': 35.9042, 'sw_lng': -113.863, 'show': 'webcams'}": {
        "error": "",
        "response": {
            "status": "OK",
            "result": {
                "offset": 0,
                "limit": 10,
                "total": 1,
                "webcams": [
                    {
                        "id": "1662501676",
                        "status": "active",
                        "title": "Grand Canyon Village"
                    }
                ]
            }
        }
    },
    "{'ne_lat': 36.2353, 'ne_lng': -112.1138, 'sw_lat': 35.9314, 'sw_lng': -112.2563, 'show': 'webcams'}": {
        "error": "",
        "response": {
            "status": "OK",
            "result": {
                "offset": 0,
                "limit": 10,
                "total": 1,
                "webcams": [
                    {
                        "id": "1662501676",
                        "status": "active",
                        "title": "Grand Canyon Village"
                    }
                ]
            }
        }
    },
    "{'ne_lat': 36.23998, 'ne_lng': -112.92115, 'sw_lat': 36.07262, 'sw_lng': -113.23761, 'show': 'webcams'}": {
        "error": "",
        "response": {
            "status": "OK",
            "result": {
                "offset": 0,
                "limit": 10,
                "total": 0,
                "webcams": []
            }
        }
    },
    "{'ne_lat': 36.159076, 'ne_lng': -112.094526, 'sw_lat': 35.982216, 'sw_lng': -112.225679, 'show': 'webcams'}": {
        "error": "",
        "response": {
            "status": "OK",
            "result": {
                "offset": 0,
                "limit": 10,
                "total": 1,
                "webcams": [
                    {
                        "id": "1662501676",
                        "status": "active",
                        "title": "Grand Canyon Village"
                    }
                ]
            }
        }
    },
    "{'ne_lat': 90, 'ne_lng': 180, 'sw_lat': -90, 'sw_lng': -180, 'show': 'webcams'}": {
        "error": "",
        "response": {
            "status": "OK",
            "result": {
                "offset": 0,
                "limit": 10,
                "total": 62759,
                "webcams": [
                    {
                        "id": "1370428364",
                        "status": "active",
                        "title": "Grevenmacher: A1"
                    },
                    {
                        "id": "1512637212",
                        "status": "active",
                        "title": "Reichraming › North-West: Schieferstein - Reichraminger Hintergebirge"
                    },
                    {
                        "id": "1578203184",
                        "status": "active",
                        "title": "городское поселение Верхнетуломский"
                    },
                    {
                        "id": "1677706172",
                        "status": "active",
                        "title": "Kirovsk › North-West"
                    },
                    {
                        "id": "1665493223",
                        "status": "active",
                        "title": "Norilsk › South"
                    },
                    {
                        "id": "1668447937",
                        "status": "active",
                        "title": "Norilsk › North"
                    },
                    {
                        "id": "1664189192",
                        "status": "active",
                        "title": "Norilsk"
                    },
                    {
                        "id": "1665493360",
                        "status": "active",
                        "title": "Norilsk"
                    },
                    {
                        "id": "1572925662",
                        "status": "active",
                        "title": "Yamburg"
                    },
                    {
                        "id": "1637178814",
                        "status": "active",
                        "title": "Labytnangi › East"
                    }
                ]
            }
        }
    },
    "{'ne_lat': 36.106299, 'ne_lng': -111.73854, 'sw_lat': 36.000045, 'sw_lng': -112.148239, 'show': 'webcams'}": {
        "error": "",
        "response": {
            "status": "OK",
            "result": {
                "offset": 0,
                "limit": 10,
                "total": 1,
                "webcams": [
                    {
                        "id": "1662501676",
                        "status": "active",
                        "title": "Grand Canyon Village"
                    }
                ]
            }
        }
    },
    "{'ne_lat': 36.1, 'ne_lng': -111.2, 'sw_lat': 35.9, 'sw_lng': -111.7, 'show': 'webcams'}": {
        "error": "",
        "response": {
            "status": "OK",
            "result": {
                "offset": 0,
                "limit": 10,
                "total": 0,
                "webcams": []
            }
        }
    },
    "{'ne_lat': 51.5074, 'ne_lng': -0.1278, 'sw_lat': 51.5074, 'sw_lng': -0.1278}": {
        "error": "",
        "response": {
            "status": "OK",
            "result": {
                "offset": 0,
                "limit": 10,
                "total": 0,
                "webcams": []
            }
        }
    },
    "{'ne_lat': 35.868602, 'ne_lng': -121.213338, 'sw_lat': 36.319924, 'sw_lng': -121.886533}": {
        "error": "",
        "response": {
            "status": "OK",
            "result": {
                "offset": 0,
                "limit": 10,
                "total": 0,
                "webcams": []
            }
        }
    },
    "{'ne_lat': 36.317, 'ne_lng': -121.786, 'sw_lat': 36.283, 'sw_lng': -121.846}": {
        "error": "",
        "response": {
            "status": "OK",
            "result": {
                "offset": 0,
                "limit": 10,
                "total": 0,
                "webcams": []
            }
        }
    },
    "{'ne_lat': 36.1069, 'ne_lng': -112.1069, 'sw_lat': 35.997, 'sw_lng': -112.2256, 'show': 'webcams'}": {
        "error": "",
        "response": {
            "status": "OK",
            "result": {
                "offset": 0,
                "limit": 10,
                "total": 1,
                "webcams": [
                    {
                        "id": "1662501676",
                        "status": "active",
                        "title": "Grand Canyon Village"
                    }
                ]
            }
        }
    },
    "{'ne_lat': 36.1, 'ne_lng': -112.1, 'sw_lat': 35.9, 'sw_lng': -112.3, 'show': 'webcams'}": {
        "error": "",
        "response": {
            "status": "OK",
            "result": {
                "offset": 0,
                "limit": 10,
                "total": 1,
                "webcams": [
                    {
                        "id": "1662501676",
                        "status": "active",
                        "title": "Grand Canyon Village"
                    }
                ]
            }
        }
    },
    "{'ne_lat': 36.239157, 'ne_lng': -112.057953, 'sw_lat': 36.05391, 'sw_lng': -112.192223, 'lang': 'en', 'show': 'webcams'}": {
        "error": "",
        "response": {
            "status": "OK",
            "result": {
                "offset": 0,
                "limit": 10,
                "total": 1,
                "webcams": [
                    {
                        "id": "1662501676",
                        "status": "active",
                        "title": "Grand Canyon Village"
                    }
                ]
            }
        }
    },
    "{'ne_lat': 36.279, 'ne_lng': -112.034, 'sw_lat': 36.081, 'sw_lng': -112.23, 'lang': 'en', 'show': 'webcams'}": {
        "error": "",
        "response": {
            "status": "OK",
            "result": {
                "offset": 0,
                "limit": 10,
                "total": 0,
                "webcams": []
            }
        }
    },
    "{'ne_lat': 36.301357, 'ne_lng': -112.060959, 'sw_lat': 35.998175, 'sw_lng': -112.254349, 'lang': 'en', 'show': 'webcams'}": {
        "error": "",
        "response": {
            "status": "OK",
            "result": {
                "offset": 0,
                "limit": 10,
                "total": 1,
                "webcams": [
                    {
                        "id": "1662501676",
                        "status": "active",
                        "title": "Grand Canyon Village"
                    }
                ]
            }
        }
    },
    "{'ne_lat': 36.546, 'ne_lng': -111.726, 'sw_lat': 35.993, 'sw_lng': -113.202, 'lang': 'en', 'show': 'webcams'}": {
        "error": "",
        "response": {
            "status": "OK",
            "result": {
                "offset": 0,
                "limit": 10,
                "total": 1,
                "webcams": [
                    {
                        "id": "1662501676",
                        "status": "active",
                        "title": "Grand Canyon Village"
                    }
                ]
            }
        }
    },
    "{'ne_lat': 36.057, 'ne_lng': -112.074, 'sw_lat': 35.952, 'sw_lng': -112.233}": {
        "error": "",
        "response": {
            "status": "OK",
            "result": {
                "offset": 0,
                "limit": 10,
                "total": 0,
                "webcams": []
            }
        }
    },
    "{'ne_lat': 36.322, 'ne_lng': -112.054, 'sw_lat': 36.062, 'sw_lng': -112.208}": {
        "error": "",
        "response": {
            "status": "OK",
            "result": {
                "offset": 0,
                "limit": 10,
                "total": 0,
                "webcams": []
            }
        }
    },
    "{'ne_lat': 70, 'ne_lng': 10, 'sw_lat': 35, 'sw_lng': -20, 'show': 'webcams', 'lang': 'en'}": {
        "error": "",
        "response": {
            "status": "OK",
            "result": {
                "offset": 0,
                "limit": 10,
                "total": 10692,
                "webcams": [
                    {
                        "id": "1217942329",
                        "status": "active",
                        "title": "Buttikon: Modellflugplatz"
                    },
                    {
                        "id": "1575671492",
                        "status": "active",
                        "title": "Helgoland: Livespotting - Live-Streaming von - mit Düne und Hafen"
                    },
                    {
                        "id": "1375472256",
                        "status": "active",
                        "title": "Vang: Grindafjell Haugastølen Hyttefelt"
                    },
                    {
                        "id": "1470489316",
                        "status": "active",
                        "title": "Lalm › West: Sjårdalsvegen - Lalmsvatnet"
                    },
                    {
                        "id": "1675205617",
                        "status": "active",
                        "title": "Lefstad: F65 Bye (Fannrem)"
                    },
                    {
                        "id": "1675291266",
                        "status": "active",
                        "title": "Ulsberg: E6 - skifter"
                    },
                    {
                        "id": "1509555762",
                        "status": "active",
                        "title": "Rabygda: Orkanger - Sør"
                    },
                    {
                        "id": "1333174285",
                        "status": "active",
                        "title": "Brekstad: Hoybakken havn"
                    },
                    {
                        "id": "1426585071",
                        "status": "active",
                        "title": "Rissa › North-East: Åsly skole"
                    },
                    {
                        "id": "1675205647",
                        "status": "active",
                        "title": "Viggja: E39 Kallfoss (Orkanger)"
                    }
                ]
            }
        }
    },
    "{'ne_lat': 55.7558, 'ne_lng': 37.6176, 'sw_lat': 41.9028, 'sw_lng': 12.4964, 'show': 'webcams'}": {
        "error": "",
        "response": {
            "status": "OK",
            "result": {
                "offset": 0,
                "limit": 10,
                "total": 6449,
                "webcams": [
                    {
                        "id": "1628182761",
                        "status": "active",
                        "title": "Witkowo"
                    },
                    {
                        "id": "1659273199",
                        "status": "active",
                        "title": "Podolsk › South-East"
                    },
                    {
                        "id": "1437608527",
                        "status": "active",
                        "title": "Барыши › East: г. Щербинка, ул. Спортивная, д."
                    },
                    {
                        "id": "1613136229",
                        "status": "active",
                        "title": "Узкое: Webcam de"
                    },
                    {
                        "id": "1682878655",
                        "status": "active",
                        "title": "поселение Десёновское"
                    },
                    {
                        "id": "1634776039",
                        "status": "active",
                        "title": "Podolsk"
                    },
                    {
                        "id": "1675416575",
                        "status": "active",
                        "title": "городское поселение Таруса"
                    },
                    {
                        "id": "1660892859",
                        "status": "active",
                        "title": "Mozhaisk › South"
                    },
                    {
                        "id": "1613136498",
                        "status": "active",
                        "title": "городское поселение Воротынск: Webcam de Oreshkovo"
                    },
                    {
                        "id": "1444993841",
                        "status": "active",
                        "title": "Kaluga › East: Ulitsa Kirova"
                    }
                ]
            }
        }
    },
    "{'ne_lat': 48.8566, 'ne_lng': 2.3522, 'sw_lat': 52.52, 'sw_lng': 13.405, 'show': 'webcams'}": {
        "error": "",
        "response": {
            "status": "OK",
            "result": {
                "offset": 0,
                "limit": 10,
                "total": 0,
                "webcams": []
            }
        }
    },
    "{'ne_lat': 54.9833, 'ne_lng': 9.9833, 'sw_lat': 36.9833, 'sw_lng': -9.9833, 'show': 'webcams'}": {
        "error": "",
        "response": {
            "status": "OK",
            "result": {
                "offset": 0,
                "limit": 10,
                "total": 9365,
                "webcams": [
                    {
                        "id": "1370428364",
                        "status": "active",
                        "title": "Grevenmacher: A1"
                    },
                    {
                        "id": "1675269866",
                        "status": "active",
                        "title": "Helgoland"
                    },
                    {
                        "id": "1191450744",
                        "status": "active",
                        "title": "Wyk auf Fohr: Hafen Wyk - Föhr"
                    },
                    {
                        "id": "1597824980",
                        "status": "active",
                        "title": "Sonderborg › West: Rute 8 Alssundbroen Ø - V"
                    },
                    {
                        "id": "1597824984",
                        "status": "active",
                        "title": "Sonderborg › East: Rute 8 Alssundbroen Ø - Ø"
                    },
                    {
                        "id": "1459601841",
                        "status": "active",
                        "title": "Arnis: WSG"
                    },
                    {
                        "id": "1317282551",
                        "status": "active",
                        "title": "Hestoft: Webcam Marina Hülsen 2"
                    },
                    {
                        "id": "1317282970",
                        "status": "active",
                        "title": "Hestoft: Kosel - Marina Hülsen"
                    },
                    {
                        "id": "1575671547",
                        "status": "active",
                        "title": "Eckernforde: Livespotting - Webcam am Sandstrand in - an der Ostsee"
                    },
                    {
                        "id": "1507155071",
                        "status": "active",
                        "title": "Skodsbol: Egernsund - Marina Minde"
                    }
                ]
            }
        }
    },
    "{'ne_lat': -23.988404, 'ne_lng': 31.554752, 'sw_lat': -23.988404, 'sw_lng': 31.554752}": {
        "error": "",
        "response": {
            "status": "OK",
            "result": {
                "offset": 0,
                "limit": 10,
                "total": 0,
                "webcams": []
            }
        }
    },
    "{'ne_lat': 36.3064, 'ne_lng': -112.0602, 'sw_lat': 36.0, 'sw_lng': -113.0, 'show': 'webcams'}": {
        "error": "",
        "response": {
            "status": "OK",
            "result": {
                "offset": 0,
                "limit": 10,
                "total": 1,
                "webcams": [
                    {
                        "id": "1662501676",
                        "status": "active",
                        "title": "Grand Canyon Village"
                    }
                ]
            }
        }
    },
    "{'ne_lat': 36.3464, 'ne_lng': -112.0602, 'sw_lat': 35.9, 'sw_lng': -113.0, 'show': 'webcams'}": {
        "error": "",
        "response": {
            "status": "OK",
            "result": {
                "offset": 0,
                "limit": 10,
                "total": 1,
                "webcams": [
                    {
                        "id": "1662501676",
                        "status": "active",
                        "title": "Grand Canyon Village"
                    }
                ]
            }
        }
    },
    "{'ne_lat': 36.1111, 'ne_lng': -112.1111, 'sw_lat': 35.8888, 'sw_lng': -112.3333, 'show': 'webcams'}": {
        "error": "",
        "response": {
            "status": "OK",
            "result": {
                "offset": 0,
                "limit": 10,
                "total": 1,
                "webcams": [
                    {
                        "id": "1662501676",
                        "status": "active",
                        "title": "Grand Canyon Village"
                    }
                ]
            }
        }
    },
    "{'ne_lat': 36.5, 'ne_lng': -112.5, 'sw_lat': 35.5, 'sw_lng': -113.5, 'show': 'webcams'}": {
        "error": "",
        "response": {
            "status": "OK",
            "result": {
                "offset": 0,
                "limit": 10,
                "total": 0,
                "webcams": []
            }
        }
    },
    "{'ne_lat': 36.25, 'ne_lng': -112.05, 'sw_lat': 36.1, 'sw_lng': -112.2, 'show': 'webcams'}": {
        "error": "",
        "response": {
            "status": "OK",
            "result": {
                "offset": 0,
                "limit": 10,
                "total": 0,
                "webcams": []
            }
        }
    },
    "{'ne_lat': 36.1065, 'ne_lng': -111.8042, 'sw_lat': 35.9691, 'sw_lng': -112.1569, 'show': 'webcams'}": {
        "error": "",
        "response": {
            "status": "OK",
            "result": {
                "offset": 0,
                "limit": 10,
                "total": 1,
                "webcams": [
                    {
                        "id": "1662501676",
                        "status": "active",
                        "title": "Grand Canyon Village"
                    }
                ]
            }
        }
    },
    "{'ne_lat': 36.0946, 'ne_lng': -111.8266, 'sw_lat': 35.848, 'sw_lng': -112.1908, 'show': 'webcams'}": {
        "error": "",
        "response": {
            "status": "OK",
            "result": {
                "offset": 0,
                "limit": 10,
                "total": 1,
                "webcams": [
                    {
                        "id": "1662501676",
                        "status": "active",
                        "title": "Grand Canyon Village"
                    }
                ]
            }
        }
    },
    "{'ne_lat': 36.5, 'ne_lng': -111.5, 'sw_lat': 35.5, 'sw_lng': -113.5, 'show': 'webcams'}": {
        "error": "",
        "response": {
            "status": "OK",
            "result": {
                "offset": 0,
                "limit": 10,
                "total": 3,
                "webcams": [
                    {
                        "id": "1650815930",
                        "status": "active",
                        "title": "Valle › West: SR-64 WB 213.90 @Williams"
                    },
                    {
                        "id": "1651419730",
                        "status": "active",
                        "title": "Valle › West: SR-64 WB 213.90 @Williams"
                    },
                    {
                        "id": "1662501676",
                        "status": "active",
                        "title": "Grand Canyon Village"
                    }
                ]
            }
        }
    },
    "{'ne_lat': 36.1064, 'ne_lng': -112.0602, 'sw_lat': 36.0064, 'sw_lng': -113.0, 'show': 'webcams'}": {
        "error": "",
        "response": {
            "status": "OK",
            "result": {
                "offset": 0,
                "limit": 10,
                "total": 1,
                "webcams": [
                    {
                        "id": "1662501676",
                        "status": "active",
                        "title": "Grand Canyon Village"
                    }
                ]
            }
        }
    },
    "{'ne_lat': 36.5, 'ne_lng': -112.5, 'sw_lat': 35.8, 'sw_lng': -113.5, 'show': 'webcams'}": {
        "error": "",
        "response": {
            "status": "OK",
            "result": {
                "offset": 0,
                "limit": 10,
                "total": 0,
                "webcams": []
            }
        }
    },
    "{'ne_lat': 36.4212, 'ne_lng': -112.0866, 'sw_lat': 36.0423, 'sw_lng': -112.1559, 'show': 'webcams'}": {
        "error": "",
        "response": {
            "status": "OK",
            "result": {
                "offset": 0,
                "limit": 10,
                "total": 1,
                "webcams": [
                    {
                        "id": "1662501676",
                        "status": "active",
                        "title": "Grand Canyon Village"
                    }
                ]
            }
        }
    },
    "{'ne_lat': 36.668065, 'ne_lng': -112.05783, 'sw_lat': 36.053928, 'sw_lng': -112.263401, 'show': 'webcams'}": {
        "error": "",
        "response": {
            "status": "OK",
            "result": {
                "offset": 0,
                "limit": 10,
                "total": 1,
                "webcams": [
                    {
                        "id": "1662501676",
                        "status": "active",
                        "title": "Grand Canyon Village"
                    }
                ]
            }
        }
    },
    "{'ne_lat': 36.2349, 'ne_lng': -112.0554, 'sw_lat': 35.9923, 'sw_lng': -112.139}": {
        "error": "",
        "response": {
            "status": "OK",
            "result": {
                "offset": 0,
                "limit": 10,
                "total": 0,
                "webcams": []
            }
        }
    },
    "{'ne_lat': 36.3064, 'ne_lng': -112.0602, 'sw_lat': 35.9923, 'sw_lng': -112.139}": {
        "error": "",
        "response": {
            "status": "OK",
            "result": {
                "offset": 0,
                "limit": 10,
                "total": 0,
                "webcams": []
            }
        }
    },
    "{'ne_lat': 36.25, 'ne_lng': -112.1, 'sw_lat': 35.75, 'sw_lng': -113.1, 'show': 'webcams'}": {
        "error": "",
        "response": {
            "status": "OK",
            "result": {
                "offset": 0,
                "limit": 10,
                "total": 1,
                "webcams": [
                    {
                        "id": "1662501676",
                        "status": "active",
                        "title": "Grand Canyon Village"
                    }
                ]
            }
        }
    },
    "{'ne_lat': 36.2487, 'ne_lng': -112.0578, 'sw_lat': 36.0493, 'sw_lng': -112.1753, 'show': 'webcams'}": {
        "error": "",
        "response": {
            "status": "OK",
            "result": {
                "offset": 0,
                "limit": 10,
                "total": 1,
                "webcams": [
                    {
                        "id": "1662501676",
                        "status": "active",
                        "title": "Grand Canyon Village"
                    }
                ]
            }
        }
    },
    "{'ne_lat': 36.1455, 'ne_lng': -112.1126, 'sw_lat': 35.9361, 'sw_lng': -112.24, 'show': 'webcams'}": {
        "error": "",
        "response": {
            "status": "OK",
            "result": {
                "offset": 0,
                "limit": 10,
                "total": 1,
                "webcams": [
                    {
                        "id": "1662501676",
                        "status": "active",
                        "title": "Grand Canyon Village"
                    }
                ]
            }
        }
    },
    "{'ne_lat': 36.2392, 'ne_lng': -112.1587, 'sw_lat': 36.0626, 'sw_lng': -112.2274, 'show': 'webcams'}": {
        "error": "",
        "response": {
            "status": "OK",
            "result": {
                "offset": 0,
                "limit": 10,
                "total": 0,
                "webcams": []
            }
        }
    },
    "{'ne_lat': 36.25, 'ne_lng': -112.0, 'sw_lat': 36.0, 'sw_lng': -113.0, 'show': 'webcams'}": {
        "error": "",
        "response": {
            "status": "OK",
            "result": {
                "offset": 0,
                "limit": 10,
                "total": 1,
                "webcams": [
                    {
                        "id": "1662501676",
                        "status": "active",
                        "title": "Grand Canyon Village"
                    }
                ]
            }
        }
    },
    "{'ne_lat': 50, 'ne_lng': -70, 'sw_lat': 30, 'sw_lng': -90, 'show': 'webcams'}": {
        "error": "",
        "response": {
            "status": "OK",
            "result": {
                "offset": 0,
                "limit": 10,
                "total": 12074,
                "webcams": [
                    {
                        "id": "1483960859",
                        "status": "active",
                        "title": "New York: Cross Bay Blvd @ Rockaway Blvd"
                    },
                    {
                        "id": "1596833188",
                        "status": "active",
                        "title": "Gloucester: HWY 417 NEAR INNES ROAD"
                    },
                    {
                        "id": "1605477772",
                        "status": "active",
                        "title": "Jamésie › West: Chibougamau/Chapais"
                    },
                    {
                        "id": "1682720821",
                        "status": "active",
                        "title": "Saint-David-de-Falardeau › South-East"
                    },
                    {
                        "id": "1676334293",
                        "status": "active",
                        "title": "Ville de Saguenay › North"
                    },
                    {
                        "id": "1685467644",
                        "status": "active",
                        "title": "Saint-Honoré › North"
                    },
                    {
                        "id": "1604873557",
                        "status": "active",
                        "title": "Saint-Honoré › West: Chicoutimi/St-Honore"
                    },
                    {
                        "id": "1676334104",
                        "status": "active",
                        "title": "Saint-Gédéon"
                    },
                    {
                        "id": "1687868521",
                        "status": "active",
                        "title": "Alma › South"
                    },
                    {
                        "id": "1676249914",
                        "status": "active",
                        "title": "Larouche › West"
                    }
                ]
            }
        }
    },
    "{'ne_lat': 49.8566, 'ne_lng': 3.3522, 'sw_lat': 47.8566, 'sw_lng': 1.3522, 'lang': 'en', 'show': 'webcams'}": {
        "error": "",
        "response": {
            "status": "OK",
            "result": {
                "offset": 0,
                "limit": 10,
                "total": 55,
                "webcams": [
                    {
                        "id": "1670347379",
                        "status": "active",
                        "title": "Guignes › West"
                    },
                    {
                        "id": "1351011365",
                        "status": "active",
                        "title": "Bagnolet: Porte de Montreuil"
                    },
                    {
                        "id": "1595146489",
                        "status": "active",
                        "title": "Margny-les-Compiegne › South-West"
                    },
                    {
                        "id": "1619813688",
                        "status": "active",
                        "title": "Chateau-Thierry › West"
                    },
                    {
                        "id": "1593873311",
                        "status": "active",
                        "title": "Courmelles"
                    },
                    {
                        "id": "1248188708",
                        "status": "active",
                        "title": "Chessy: Disney Village"
                    },
                    {
                        "id": "1351011367",
                        "status": "active",
                        "title": "Saint-Denis: Porte d'Aubervilliers"
                    },
                    {
                        "id": "1675102938",
                        "status": "active",
                        "title": "Le Plessis-Belleville › South-West"
                    },
                    {
                        "id": "1351011370",
                        "status": "active",
                        "title": "Saint-Denis: Porte d'Aubervilliers"
                    },
                    {
                        "id": "1351011363",
                        "status": "active",
                        "title": "Bagnolet: Porte des Lilas"
                    }
                ]
            }
        }
    },
    "{'ne_lat': -23.9883, 'ne_lng': 31.7601, 'sw_lat': -24.6662, 'sw_lng': 31.3578}": {
        "error": "",
        "response": {
            "status": "OK",
            "result": {
                "offset": 0,
                "limit": 10,
                "total": 0,
                "webcams": []
            }
        }
    },
    "{'ne_lat': -23.9016, 'ne_lng': 31.5793, 'sw_lat': -24.8116, 'sw_lng': 30.9708}": {
        "error": "",
        "response": {
            "status": "OK",
            "result": {
                "offset": 0,
                "limit": 10,
                "total": 0,
                "webcams": []
            }
        }
    },
    "{'ne_lat': -24.7, 'ne_lng': 31.4, 'sw_lat': -24.9, 'sw_lng': 31.2}": {
        "error": "",
        "response": {
            "status": "OK",
            "result": {
                "offset": 0,
                "limit": 10,
                "total": 0,
                "webcams": []
            }
        }
    },
    "{'ne_lat': -24.6662, 'ne_lng': 31.7601, 'sw_lat': -23.9883, 'sw_lng': 31.3578}": {
        "error": "",
        "response": {
            "status": "OK",
            "result": {
                "offset": 0,
                "limit": 10,
                "total": 0,
                "webcams": []
            }
        }
    },
    "{'ne_lat': -23.946005, 'ne_lng': 31.617256, 'sw_lat': -24.076803, 'sw_lng': 31.489248}": {
        "error": "",
        "response": {
            "status": "OK",
            "result": {
                "offset": 0,
                "limit": 10,
                "total": 0,
                "webcams": []
            }
        }
    },
    "{'ne_lat': 36.784167, 'ne_lng': -121.5375, 'sw_lat': 34.408056, 'sw_lng': -119.679722, 'show': 'webcams'}": {
        "error": "",
        "response": {
            "status": "OK",
            "result": {
                "offset": 0,
                "limit": 10,
                "total": 0,
                "webcams": []
            }
        }
    },
    "{'ne_lat': 36.373374, 'ne_lng': -121.696622, 'sw_lat': 36.159163, 'sw_lng': -122.005724, 'show': 'webcams'}": {
        "error": "",
        "response": {
            "status": "OK",
            "result": {
                "offset": 0,
                "limit": 10,
                "total": 2,
                "webcams": [
                    {
                        "id": "1675723772",
                        "status": "active",
                        "title": "Monterey"
                    },
                    {
                        "id": "1578511901",
                        "status": "active",
                        "title": "Monterey › South-East: Nepenthe"
                    }
                ]
            }
        }
    },
    "{'ne_lat': 36.372641, 'ne_lng': -112.11294, 'sw_lat': 36.062542, 'sw_lng': -113.034641, 'show': 'webcams'}": {
        "error": "",
        "response": {
            "status": "OK",
            "result": {
                "offset": 0,
                "limit": 10,
                "total": 0,
                "webcams": []
            }
        }
    },
    "{'ne_lat': 36.3361147, 'ne_lng': -112.1103024, 'sw_lat': 36.1106433, 'sw_lng': -112.2311988, 'show': 'webcams'}": {
        "error": "",
        "response": {
            "status": "OK",
            "result": {
                "offset": 0,
                "limit": 10,
                "total": 0,
                "webcams": []
            }
        }
    },
    "{'ne_lat': 36.1827, 'ne_lng': -112.0569, 'sw_lat': 35.9902, 'sw_lng': -112.1808, 'show': 'webcams'}": {
        "error": "",
        "response": {
            "status": "OK",
            "result": {
                "offset": 0,
                "limit": 10,
                "total": 1,
                "webcams": [
                    {
                        "id": "1662501676",
                        "status": "active",
                        "title": "Grand Canyon Village"
                    }
                ]
            }
        }
    },
    "{'ne_lat': 36.106984, 'ne_lng': -112.107248, 'sw_lat': 35.968858, 'sw_lng': -112.254871, 'show': 'webcams'}": {
        "error": "",
        "response": {
            "status": "OK",
            "result": {
                "offset": 0,
                "limit": 10,
                "total": 1,
                "webcams": [
                    {
                        "id": "1662501676",
                        "status": "active",
                        "title": "Grand Canyon Village"
                    }
                ]
            }
        }
    },
    "{'ne_lat': 36.3541, 'ne_lng': -112.0715, 'sw_lat': 36.0473, 'sw_lng': -113.2369, 'show': 'webcams'}": {
        "error": "",
        "response": {
            "status": "OK",
            "result": {
                "offset": 0,
                "limit": 10,
                "total": 1,
                "webcams": [
                    {
                        "id": "1662501676",
                        "status": "active",
                        "title": "Grand Canyon Village"
                    }
                ]
            }
        }
    },
    "{'ne_lat': 36.3541, 'ne_lng': -112.0715, 'sw_lat': 36.0473, 'sw_lng': -113.2369, 'lang': 'en', 'show': 'webcams'}": {
        "error": "",
        "response": {
            "status": "OK",
            "result": {
                "offset": 0,
                "limit": 10,
                "total": 1,
                "webcams": [
                    {
                        "id": "1662501676",
                        "status": "active",
                        "title": "Grand Canyon Village"
                    }
                ]
            }
        }
    },
    "{'ne_lat': 36.2779, 'ne_lng': -112.0613, 'sw_lat': 35.9419, 'sw_lng': -112.2549, 'show': 'webcams'}": {
        "error": "",
        "response": {
            "status": "OK",
            "result": {
                "offset": 0,
                "limit": 10,
                "total": 1,
                "webcams": [
                    {
                        "id": "1662501676",
                        "status": "active",
                        "title": "Grand Canyon Village"
                    }
                ]
            }
        }
    },
    "{'ne_lat': 36.107, 'ne_lng': -112.3176, 'sw_lat': 36.057, 'sw_lng': -112.256, 'show': 'webcams'}": {
        "error": "",
        "response": {
            "status": "OK",
            "result": {
                "offset": 0,
                "limit": 10,
                "total": 0,
                "webcams": []
            }
        }
    },
    "{'ne_lat': 36.372, 'ne_lng': -112.112, 'sw_lat': 36.062, 'sw_lng': -113.034, 'show': 'webcams'}": {
        "error": "",
        "response": {
            "status": "OK",
            "result": {
                "offset": 0,
                "limit": 10,
                "total": 0,
                "webcams": []
            }
        }
    },
    "{'ne_lat': 36.1079, 'ne_lng': -112.0557, 'sw_lat': 35.9465, 'sw_lng': -112.2427, 'show': 'webcams'}": {
        "error": "",
        "response": {
            "status": "OK",
            "result": {
                "offset": 0,
                "limit": 10,
                "total": 1,
                "webcams": [
                    {
                        "id": "1662501676",
                        "status": "active",
                        "title": "Grand Canyon Village"
                    }
                ]
            }
        }
    },
    "{'ne_lat': -23.5, 'ne_lng': -68.8, 'sw_lat': -24.0, 'sw_lng': -69.4}": {
        "error": "",
        "response": {
            "status": "OK",
            "result": {
                "offset": 0,
                "limit": 10,
                "total": 0,
                "webcams": []
            }
        }
    },
    "{'ne_lat': 52.520008, 'ne_lng': 13.404954, 'sw_lat': 52.485335, 'sw_lng': 13.412227}": {
        "error": "",
        "response": {
            "status": "OK",
            "result": {
                "offset": 0,
                "limit": 10,
                "total": 0,
                "webcams": []
            }
        }
    },
    "{'ne_lat': 36.23643, 'ne_lng': -112.110477, 'sw_lat': 36.060149, 'sw_lng': -112.268307, 'show': 'webcams'}": {
        "error": "",
        "response": {
            "status": "OK",
            "result": {
                "offset": 0,
                "limit": 10,
                "total": 0,
                "webcams": []
            }
        }
    },
    "{'ne_lat': 36.1497, 'ne_lng': -111.0796, 'sw_lat': 36.0532, 'sw_lng': -112.1544, 'show': 'webcams'}": {
        "error": "",
        "response": {
            "status": "OK",
            "result": {
                "offset": 0,
                "limit": 10,
                "total": 2,
                "webcams": [
                    {
                        "id": "1673796913",
                        "status": "active",
                        "title": "Moenkopi › North: US-160 NA 321.97 @SR-264"
                    },
                    {
                        "id": "1662501676",
                        "status": "active",
                        "title": "Grand Canyon Village"
                    }
                ]
            }
        }
    },
    "{'ne_lat': 36.0589, 'sw_lng': -112.154, 'sw_lat': 35.9904, 'ne_lng': -112.1063, 'lang': 'en', 'show': 'webcams'}": {
        "error": "",
        "response": {
            "status": "OK",
            "result": {
                "offset": 0,
                "limit": 10,
                "total": 1,
                "webcams": [
                    {
                        "id": "1662501676",
                        "status": "active",
                        "title": "Grand Canyon Village"
                    }
                ]
            }
        }
    },
    "{'ne_lat': 36.0, 'ne_lng': -112.0, 'sw_lat': 35.9, 'sw_lng': -112.2, 'show': 'webcams'}": {
        "error": "",
        "response": {
            "status": "OK",
            "result": {
                "offset": 0,
                "limit": 10,
                "total": 0,
                "webcams": []
            }
        }
    },
    "{'ne_lat': 51.5074, 'ne_lng': -0.1278, 'sw_lat': -34.6037, 'sw_lng': -58.3816, 'show': 'webcams'}": {
        "error": "",
        "response": {
            "status": "OK",
            "result": {
                "offset": 0,
                "limit": 10,
                "total": 2461,
                "webcams": [
                    {
                        "id": "1508414150",
                        "status": "active",
                        "title": "London: Piccadilly/Whitehorse St"
                    },
                    {
                        "id": "1508414129",
                        "status": "active",
                        "title": "London: Park Lane Opposite Stanhope Gate"
                    },
                    {
                        "id": "1508413713",
                        "status": "active",
                        "title": "London: Hyde Park Corner/Park Lane"
                    },
                    {
                        "id": "1508414579",
                        "status": "active",
                        "title": "London: Grosvenor/Chapel St"
                    },
                    {
                        "id": "1508415509",
                        "status": "active",
                        "title": "London: Piccadilly/Down St"
                    },
                    {
                        "id": "1508415456",
                        "status": "active",
                        "title": "London: Hobart Place/Grosvenor Place"
                    },
                    {
                        "id": "1508414562",
                        "status": "active",
                        "title": "London: Hyde Park Corner"
                    },
                    {
                        "id": "1508414612",
                        "status": "active",
                        "title": "London: Vauxhall B Rd N Rampayne St"
                    },
                    {
                        "id": "1508413650",
                        "status": "active",
                        "title": "London: Vauxhall Brd Rd/Drummond Gt"
                    },
                    {
                        "id": "1508413582",
                        "status": "active",
                        "title": "London: Horseferry Rd/Marsham St"
                    }
                ]
            }
        }
    },
    "{'ne_lat': 51.5072, 'ne_lng': -0.1276, 'sw_lat': 51.5072, 'sw_lng': -0.1276}": {
        "error": "",
        "response": {
            "status": "OK",
            "result": {
                "offset": 0,
                "limit": 10,
                "total": 0,
                "webcams": []
            }
        }
    },
    "{'ne_lat': 36.2864, 'ne_lng': -112.1089, 'sw_lat': 35.9617, 'sw_lng': -113.1113, 'show': 'webcams'}": {
        "error": "",
        "response": {
            "status": "OK",
            "result": {
                "offset": 0,
                "limit": 10,
                "total": 1,
                "webcams": [
                    {
                        "id": "1662501676",
                        "status": "active",
                        "title": "Grand Canyon Village"
                    }
                ]
            }
        }
    },
    "{'ne_lat': 45.0, 'ne_lng': 0.0, 'sw_lat': -45.0, 'sw_lng': 0.0}": {
        "error": "",
        "response": {
            "status": "OK",
            "result": {
                "offset": 0,
                "limit": 10,
                "total": 0,
                "webcams": []
            }
        }
    },
    "{'ne_lat': 90, 'ne_lng': 180, 'sw_lat': -90, 'sw_lng': -180, 'lang': 'en', 'show': 'webcams'}": {
        "error": "",
        "response": {
            "status": "OK",
            "result": {
                "offset": 0,
                "limit": 10,
                "total": 62805,
                "webcams": [
                    {
                        "id": "1478541314",
                        "status": "active",
                        "title": "Montricher › South-West: Mont Tendre"
                    },
                    {
                        "id": "1483714677",
                        "status": "active",
                        "title": "Alsviki: Alūksnes Ezers - Alūksnes Rajons"
                    },
                    {
                        "id": "1605151950",
                        "status": "active",
                        "title": "Savonlinna: Tie - Kyrönsalmi"
                    },
                    {
                        "id": "1677706172",
                        "status": "active",
                        "title": "Kirovsk › North-West"
                    },
                    {
                        "id": "1665493223",
                        "status": "active",
                        "title": "Norilsk › South"
                    },
                    {
                        "id": "1661093724",
                        "status": "active",
                        "title": "Pevek › North"
                    },
                    {
                        "id": "1668447937",
                        "status": "active",
                        "title": "Norilsk › North"
                    },
                    {
                        "id": "1664189192",
                        "status": "active",
                        "title": "Norilsk"
                    },
                    {
                        "id": "1665493360",
                        "status": "active",
                        "title": "Norilsk"
                    },
                    {
                        "id": "1572925662",
                        "status": "active",
                        "title": "Yamburg"
                    }
                ]
            }
        }
    },
    "{'ne_lat': 36.1588, 'ne_lng': -112.0084, 'sw_lat': 36.0408, 'sw_lng': -112.2078, 'show': 'webcams'}": {
        "error": "",
        "response": {
            "status": "OK",
            "result": {
                "offset": 0,
                "limit": 10,
                "total": 1,
                "webcams": [
                    {
                        "id": "1662501676",
                        "status": "active",
                        "title": "Grand Canyon Village"
                    }
                ]
            }
        }
    },
    "{'ne_lat': 36.257, 'ne_lng': -111.917, 'sw_lat': 36.019, 'sw_lng': -112.279, 'show': 'webcams'}": {
        "error": "",
        "response": {
            "status": "OK",
            "result": {
                "offset": 0,
                "limit": 10,
                "total": 1,
                "webcams": [
                    {
                        "id": "1662501676",
                        "status": "active",
                        "title": "Grand Canyon Village"
                    }
                ]
            }
        }
    },
    "{'ne_lat': 36.0652, 'ne_lng': -111.8363, 'sw_lat': 35.9871, 'sw_lng': -111.9934, 'show': 'webcams'}": {
        "error": "",
        "response": {
            "status": "OK",
            "result": {
                "offset": 0,
                "limit": 10,
                "total": 0,
                "webcams": []
            }
        }
    },
    "{'ne_lat': 36.2583, 'ne_lng': -112.1031, 'sw_lat': 35.8919, 'sw_lng': -112.3338, 'show': 'webcams'}": {
        "error": "",
        "response": {
            "status": "OK",
            "result": {
                "offset": 0,
                "limit": 10,
                "total": 1,
                "webcams": [
                    {
                        "id": "1662501676",
                        "status": "active",
                        "title": "Grand Canyon Village"
                    }
                ]
            }
        }
    },
    "{'ne_lat': 36.4684, 'ne_lng': -111.6016, 'sw_lat': 35.8602, 'sw_lng': -112.3917, 'show': 'webcams'}": {
        "error": "",
        "response": {
            "status": "OK",
            "result": {
                "offset": 0,
                "limit": 10,
                "total": 1,
                "webcams": [
                    {
                        "id": "1662501676",
                        "status": "active",
                        "title": "Grand Canyon Village"
                    }
                ]
            }
        }
    },
    "{'ne_lat': 36.4, 'ne_lng': -112, 'sw_lat': 35.8, 'sw_lng': -112.5, 'show': 'webcams'}": {
        "error": "",
        "response": {
            "status": "OK",
            "result": {
                "offset": 0,
                "limit": 10,
                "total": 1,
                "webcams": [
                    {
                        "id": "1662501676",
                        "status": "active",
                        "title": "Grand Canyon Village"
                    }
                ]
            }
        }
    },
    "{'ne_lat': 36.25, 'ne_lng': -112, 'sw_lat': 35.75, 'sw_lng': -112.5, 'show': 'webcams'}": {
        "error": "",
        "response": {
            "status": "OK",
            "result": {
                "offset": 0,
                "limit": 10,
                "total": 1,
                "webcams": [
                    {
                        "id": "1662501676",
                        "status": "active",
                        "title": "Grand Canyon Village"
                    }
                ]
            }
        }
    },
    "{'ne_lat': 36.109592, 'ne_lng': -111.037888, 'sw_lat': 35.961226, 'sw_lng': -112.219093, 'show': 'webcams'}": {
        "error": "",
        "response": {
            "status": "OK",
            "result": {
                "offset": 0,
                "limit": 10,
                "total": 1,
                "webcams": [
                    {
                        "id": "1662501676",
                        "status": "active",
                        "title": "Grand Canyon Village"
                    }
                ]
            }
        }
    },
    "{'ne_lat': 88.363, 'ne_lng': -179.148909, 'sw_lat': -88.364, 'sw_lng': 179.148909}": {
        "error": "",
        "response": {
            "status": "OK",
            "result": {
                "offset": 0,
                "limit": 10,
                "total": 0,
                "webcams": []
            }
        }
    },
    "{'ne_lat': 36.106965, 'ne_lng': -112.112997, 'sw_lat': 35.915922, 'sw_lng': -112.204623, 'show': 'webcams'}": {
        "error": "",
        "response": {
            "status": "OK",
            "result": {
                "offset": 0,
                "limit": 10,
                "total": 1,
                "webcams": [
                    {
                        "id": "1662501676",
                        "status": "active",
                        "title": "Grand Canyon Village"
                    }
                ]
            }
        }
    },
    "{'ne_lat': 36.2409, 'ne_lng': -112.111, 'sw_lat': 35.8373, 'sw_lng': -112.2426, 'show': 'webcams'}": {
        "error": "",
        "response": {
            "status": "OK",
            "result": {
                "offset": 0,
                "limit": 10,
                "total": 1,
                "webcams": [
                    {
                        "id": "1662501676",
                        "status": "active",
                        "title": "Grand Canyon Village"
                    }
                ]
            }
        }
    },
    "{'ne_lat': 36.123, 'ne_lng': -112.097, 'sw_lat': 35.99, 'sw_lng': -112.23, 'show': 'webcams'}": {
        "error": "",
        "response": {
            "status": "OK",
            "result": {
                "offset": 0,
                "limit": 10,
                "total": 1,
                "webcams": [
                    {
                        "id": "1662501676",
                        "status": "active",
                        "title": "Grand Canyon Village"
                    }
                ]
            }
        }
    },
    "{'ne_lat': 36.113063, 'sw_lng': -113.234848, 'sw_lat': 35.948128, 'ne_lng': -112.048639, 'show': 'webcams'}": {
        "error": "",
        "response": {
            "status": "OK",
            "result": {
                "offset": 0,
                "limit": 10,
                "total": 1,
                "webcams": [
                    {
                        "id": "1662501676",
                        "status": "active",
                        "title": "Grand Canyon Village"
                    }
                ]
            }
        }
    },
    "{'ne_lat': 36.106477, 'ne_lng': -112.091188, 'sw_lat': 35.963189, 'sw_lng': -112.224215, 'show': 'webcams'}": {
        "error": "",
        "response": {
            "status": "OK",
            "result": {
                "offset": 0,
                "limit": 10,
                "total": 1,
                "webcams": [
                    {
                        "id": "1662501676",
                        "status": "active",
                        "title": "Grand Canyon Village"
                    }
                ]
            }
        }
    },
    "{'ne_lat': 36.244273, 'ne_lng': -112.101819, 'sw_lat': 35.918681, 'sw_lng': -113.476074, 'show': 'webcams'}": {
        "error": "",
        "response": {
            "status": "OK",
            "result": {
                "offset": 0,
                "limit": 10,
                "total": 1,
                "webcams": [
                    {
                        "id": "1662501676",
                        "status": "active",
                        "title": "Grand Canyon Village"
                    }
                ]
            }
        }
    },
    "{'ne_lat': 36.3295, 'ne_lng': -112.0639, 'sw_lat': 36.0464, 'sw_lng': -112.2634, 'show': 'webcams'}": {
        "error": "",
        "response": {
            "status": "OK",
            "result": {
                "offset": 0,
                "limit": 10,
                "total": 1,
                "webcams": [
                    {
                        "id": "1662501676",
                        "status": "active",
                        "title": "Grand Canyon Village"
                    }
                ]
            }
        }
    },
    "{'ne_lat': 36.244273, 'ne_lng': -112.101819, 'sw_lat': 35.918681, 'sw_lng': -113.476074, 'show': 'webcams,properties'}": {
        "error": "",
        "response": {
            "status": "OK",
            "result": {
                "offset": 0,
                "limit": 10,
                "total": 1,
                "webcams": [
                    {
                        "id": "1662501676",
                        "status": "active",
                        "title": "Grand Canyon Village"
                    }
                ]
            }
        }
    },
    "{'ne_lat': 36.238, 'ne_lng': -112.108, 'sw_lat': 35.92, 'sw_lng': -113.525, 'show': 'webcams'}": {
        "error": "",
        "response": {
            "status": "OK",
            "result": {
                "offset": 0,
                "limit": 10,
                "total": 1,
                "webcams": [
                    {
                        "id": "1662501676",
                        "status": "active",
                        "title": "Grand Canyon Village"
                    }
                ]
            }
        }
    },
    "{'ne_lat': 36.23998, 'ne_lng': -113.78029, 'sw_lat': 35.99818, 'sw_lng': -112.3061, 'show': 'webcams'}": {
        "error": "",
        "response": {
            "status": "OK",
            "result": {
                "offset": 0,
                "limit": 10,
                "total": 0,
                "webcams": []
            }
        }
    },
    "{'ne_lat': 37.01707, 'ne_lng': -112.98746, 'sw_lat': 36.04846, 'sw_lng': -111.82029, 'show': 'webcams'}": {
        "error": "",
        "response": {
            "status": "OK",
            "result": {
                "offset": 0,
                "limit": 10,
                "total": 0,
                "webcams": []
            }
        }
    },
    "{'ne_lat': 37.07349, 'ne_lng': -112.89623, 'sw_lat': 36.06235, 'sw_lng': -111.62965, 'show': 'webcams'}": {
        "error": "",
        "response": {
            "status": "OK",
            "result": {
                "offset": 0,
                "limit": 10,
                "total": 0,
                "webcams": []
            }
        }
    },
    "{'ne_lat': 36.056596, 'ne_lng': -112.109985, 'sw_lat': 35.938791, 'sw_lng': -111.892753, 'show': 'webcams'}": {
        "error": "",
        "response": {
            "status": "OK",
            "result": {
                "offset": 0,
                "limit": 10,
                "total": 0,
                "webcams": []
            }
        }
    },
    "{'ne_lat': 36.23998, 'ne_lng': -112.09175, 'sw_lat': 35.99818, 'sw_lng': -111.82029, 'show': 'webcams'}": {
        "error": "",
        "response": {
            "status": "OK",
            "result": {
                "offset": 0,
                "limit": 10,
                "total": 0,
                "webcams": []
            }
        }
    },
    "{'ne_lat': 36.4, 'ne_lng': -113.8, 'sw_lat': 35.9, 'sw_lng': -111.5, 'show': 'webcams'}": {
        "error": "",
        "response": {
            "status": "OK",
            "result": {
                "offset": 0,
                "limit": 10,
                "total": 0,
                "webcams": []
            }
        }
    },
    "{'ne_lat': 36.175, 'ne_lng': -112.115, 'sw_lat': 36.05, 'sw_lng': -112.223, 'show': 'webcams'}": {
        "error": "",
        "response": {
            "status": "OK",
            "result": {
                "offset": 0,
                "limit": 10,
                "total": 1,
                "webcams": [
                    {
                        "id": "1662501676",
                        "status": "active",
                        "title": "Grand Canyon Village"
                    }
                ]
            }
        }
    },
    "{'ne_lat': 36.443292, 'ne_lng': -113.358974, 'sw_lat': 35.875374, 'sw_lng': -112.746201, 'show': 'webcams'}": {
        "error": "",
        "response": {
            "status": "OK",
            "result": {
                "offset": 0,
                "limit": 10,
                "total": 0,
                "webcams": []
            }
        }
    },
    "{'ne_lat': 53.483959, 'ne_lng': -2.240836, 'sw_lat': 53.461307, 'sw_lng': -2.275893, 'show': 'webcams'}": {
        "error": "",
        "response": {
            "status": "OK",
            "result": {
                "offset": 0,
                "limit": 10,
                "total": 0,
                "webcams": []
            }
        }
    },
    "{'ne_lat': 36.23998, 'ne_lng': -112.149991, 'sw_lat': 35.99818, 'sw_lng': -111.675802, 'show': 'webcams'}": {
        "error": "",
        "response": {
            "status": "OK",
            "result": {
                "offset": 0,
                "limit": 10,
                "total": 0,
                "webcams": []
            }
        }
    },
    "{'ne_lat': 40.9176, 'ne_lng': -73.7004, 'sw_lat': 40.4774, 'sw_lng': -74.2591, 'lang': 'en', 'show': 'webcams'}": {
        "error": "",
        "response": {
            "status": "OK",
            "result": {
                "offset": 0,
                "limit": 10,
                "total": 568,
                "webcams": [
                    {
                        "id": "1562900719",
                        "status": "active",
                        "title": "Hewlett Neck › East: SSP at Exit 13 - Central Ave"
                    },
                    {
                        "id": "1562900148",
                        "status": "active",
                        "title": "New York › North: I-295 at East Tremont Avenue"
                    },
                    {
                        "id": "1660878618",
                        "status": "active",
                        "title": "Pelham Manor › South: I-95 at Interchange 14 (Hutchinson River Parkway)"
                    },
                    {
                        "id": "1649733950",
                        "status": "active",
                        "title": "Pelham Manor › South-West: Harlem Yacht Club"
                    },
                    {
                        "id": "1562900856",
                        "status": "active",
                        "title": "New York › South: 908A at New England Thruway/Overpass"
                    },
                    {
                        "id": "1483960234",
                        "status": "active",
                        "title": "Yonkers › East: Fulton Avenue/Pelham Parkway Drawbridge at Secor Lane"
                    },
                    {
                        "id": "1562900651",
                        "status": "active",
                        "title": "Yonkers › North: Hutchinson River Parkway At Exit 4B (US)"
                    },
                    {
                        "id": "1483961891",
                        "status": "active",
                        "title": "New York: New England Thruway @ Conner Street"
                    },
                    {
                        "id": "1672973086",
                        "status": "active",
                        "title": "Parkside › South: I-95 at Interchange 13 (Conner Street)"
                    },
                    {
                        "id": "1562900858",
                        "status": "active",
                        "title": "New York › South: 908A at Bartow Avenue"
                    }
                ]
            }
        }
    },
    "{'ne_lat': 40.915255, 'ne_lng': -73.700272, 'sw_lat': 40.496046, 'sw_lng': -74.255492, 'lang': 'en', 'show': 'webcams'}": {
        "error": "",
        "response": {
            "status": "OK",
            "result": {
                "offset": 0,
                "limit": 10,
                "total": 567,
                "webcams": [
                    {
                        "id": "1562900719",
                        "status": "active",
                        "title": "Hewlett Neck › East: SSP at Exit 13 - Central Ave"
                    },
                    {
                        "id": "1562900148",
                        "status": "active",
                        "title": "New York › North: I-295 at East Tremont Avenue"
                    },
                    {
                        "id": "1660878618",
                        "status": "active",
                        "title": "Pelham Manor › South: I-95 at Interchange 14 (Hutchinson River Parkway)"
                    },
                    {
                        "id": "1649733950",
                        "status": "active",
                        "title": "Pelham Manor › South-West: Harlem Yacht Club"
                    },
                    {
                        "id": "1562900856",
                        "status": "active",
                        "title": "New York › South: 908A at New England Thruway/Overpass"
                    },
                    {
                        "id": "1483960234",
                        "status": "active",
                        "title": "Yonkers › East: Fulton Avenue/Pelham Parkway Drawbridge at Secor Lane"
                    },
                    {
                        "id": "1562900651",
                        "status": "active",
                        "title": "Yonkers › North: Hutchinson River Parkway At Exit 4B (US)"
                    },
                    {
                        "id": "1483961891",
                        "status": "active",
                        "title": "New York: New England Thruway @ Conner Street"
                    },
                    {
                        "id": "1672973086",
                        "status": "active",
                        "title": "Parkside › South: I-95 at Interchange 13 (Conner Street)"
                    },
                    {
                        "id": "1562900858",
                        "status": "active",
                        "title": "New York › South: 908A at Bartow Avenue"
                    }
                ]
            }
        }
    },
    "{'ne_lat': 40.917577, 'ne_lng': -73.700272, 'sw_lat': 40.477399, 'sw_lng': -74.25909, 'show': 'webcams'}": {
        "error": "",
        "response": {
            "status": "OK",
            "result": {
                "offset": 0,
                "limit": 10,
                "total": 568,
                "webcams": [
                    {
                        "id": "1562900719",
                        "status": "active",
                        "title": "Hewlett Neck › East: SSP at Exit 13 - Central Ave"
                    },
                    {
                        "id": "1562900148",
                        "status": "active",
                        "title": "New York › North: I-295 at East Tremont Avenue"
                    },
                    {
                        "id": "1660878618",
                        "status": "active",
                        "title": "Pelham Manor › South: I-95 at Interchange 14 (Hutchinson River Parkway)"
                    },
                    {
                        "id": "1649733950",
                        "status": "active",
                        "title": "Pelham Manor › South-West: Harlem Yacht Club"
                    },
                    {
                        "id": "1562900856",
                        "status": "active",
                        "title": "New York › South: 908A at New England Thruway/Overpass"
                    },
                    {
                        "id": "1483960234",
                        "status": "active",
                        "title": "Yonkers › East: Fulton Avenue/Pelham Parkway Drawbridge at Secor Lane"
                    },
                    {
                        "id": "1562900651",
                        "status": "active",
                        "title": "Yonkers › North: Hutchinson River Parkway At Exit 4B (US)"
                    },
                    {
                        "id": "1483961891",
                        "status": "active",
                        "title": "New York: New England Thruway @ Conner Street"
                    },
                    {
                        "id": "1672973086",
                        "status": "active",
                        "title": "Parkside › South: I-95 at Interchange 13 (Conner Street)"
                    },
                    {
                        "id": "1562900858",
                        "status": "active",
                        "title": "New York › South: 908A at Bartow Avenue"
                    }
                ]
            }
        }
    },
    "{'ne_lat': 40.9176, 'ne_lng': -73.7004, 'sw_lat': 40.4774, 'sw_lng': -74.2591, 'show': 'webcams'}": {
        "error": "",
        "response": {
            "status": "OK",
            "result": {
                "offset": 0,
                "limit": 10,
                "total": 568,
                "webcams": [
                    {
                        "id": "1562900719",
                        "status": "active",
                        "title": "Hewlett Neck › East: SSP at Exit 13 - Central Ave"
                    },
                    {
                        "id": "1562900148",
                        "status": "active",
                        "title": "New York › North: I-295 at East Tremont Avenue"
                    },
                    {
                        "id": "1660878618",
                        "status": "active",
                        "title": "Pelham Manor › South: I-95 at Interchange 14 (Hutchinson River Parkway)"
                    },
                    {
                        "id": "1649733950",
                        "status": "active",
                        "title": "Pelham Manor › South-West: Harlem Yacht Club"
                    },
                    {
                        "id": "1562900856",
                        "status": "active",
                        "title": "New York › South: 908A at New England Thruway/Overpass"
                    },
                    {
                        "id": "1483960234",
                        "status": "active",
                        "title": "Yonkers › East: Fulton Avenue/Pelham Parkway Drawbridge at Secor Lane"
                    },
                    {
                        "id": "1562900651",
                        "status": "active",
                        "title": "Yonkers › North: Hutchinson River Parkway At Exit 4B (US)"
                    },
                    {
                        "id": "1483961891",
                        "status": "active",
                        "title": "New York: New England Thruway @ Conner Street"
                    },
                    {
                        "id": "1672973086",
                        "status": "active",
                        "title": "Parkside › South: I-95 at Interchange 13 (Conner Street)"
                    },
                    {
                        "id": "1562900858",
                        "status": "active",
                        "title": "New York › South: 908A at Bartow Avenue"
                    }
                ]
            }
        }
    },
    "{'ne_lat': 21.2865, 'ne_lng': -157.8327, 'sw_lat': 21.2577, 'sw_lng': -157.8433}": {
        "error": "",
        "response": {
            "status": "OK",
            "result": {
                "offset": 0,
                "limit": 10,
                "total": 0,
                "webcams": []
            }
        }
    },
    "{'ne_lat': 21.285, 'ne_lng': -157.835, 'sw_lat': 21.266, 'sw_lng': -157.844}": {
        "error": "",
        "response": {
            "status": "OK",
            "result": {
                "offset": 0,
                "limit": 10,
                "total": 0,
                "webcams": []
            }
        }
    },
    "{'ne_lat': 34.1808, 'ne_lng': -118.907, 'sw_lat': 33.6997, 'sw_lng': -118.607}": {
        "error": "",
        "response": {
            "status": "OK",
            "result": {
                "offset": 0,
                "limit": 10,
                "total": 0,
                "webcams": []
            }
        }
    },
    "{'ne_lat': 34.1541, 'ne_lng': -118.1553, 'sw_lat': 33.7045, 'sw_lng': -118.6682, 'lang': 'en', 'show': 'webcams'}": {
        "error": "",
        "response": {
            "status": "OK",
            "result": {
                "offset": 0,
                "limit": 10,
                "total": 37,
                "webcams": [
                    {
                        "id": "1686160447",
                        "status": "active",
                        "title": "Monterey Park › South: I-710 : (135) South of I-10"
                    },
                    {
                        "id": "1686160399",
                        "status": "active",
                        "title": "Boyle Heights › West: I-10 : (130) West of I-5"
                    },
                    {
                        "id": "1688752971",
                        "status": "active",
                        "title": "Los Angeles › South: I-405 : (369) North of Sunset Blvd"
                    },
                    {
                        "id": "1686160611",
                        "status": "active",
                        "title": "Lynwood › South: I-710 : (276) Southbound I-710 Imperial Hwy"
                    },
                    {
                        "id": "1686160666",
                        "status": "active",
                        "title": "East Los Angeles › North: I-710 : (285) 3rd St"
                    },
                    {
                        "id": "1686160688",
                        "status": "active",
                        "title": "Monterey Park › North: I-710 : (286) North of Cesar Chavez Ave"
                    },
                    {
                        "id": "1686160650",
                        "status": "active",
                        "title": "East Los Angeles › North: I-710 : (284) North of I-5"
                    },
                    {
                        "id": "1686160372",
                        "status": "active",
                        "title": "Commerce › North: I-5 : (7) Triggs"
                    },
                    {
                        "id": "1686160640",
                        "status": "active",
                        "title": "Commerce › South: I-710 : (283) South of I-5"
                    },
                    {
                        "id": "1686160634",
                        "status": "active",
                        "title": "Bandini › North: I-710 : (282) Washington Blvd"
                    }
                ]
            }
        }
    },
    "{'ne_lat': 21.2841, 'ne_lng': -157.831, 'sw_lat': 21.272, 'sw_lng': -157.8395}": {
        "error": "",
        "response": {
            "status": "OK",
            "result": {
                "offset": 0,
                "limit": 10,
                "total": 0,
                "webcams": []
            }
        }
    },
    "{'ne_lat': 21.283, 'ne_lng': -157.835, 'sw_lat': 21.255, 'sw_lng': -157.828}": {
        "error": "",
        "response": {
            "status": "OK",
            "result": {
                "offset": 0,
                "limit": 10,
                "total": 0,
                "webcams": []
            }
        }
    },
    "{'ne_lat': 34.2302, 'ne_lng': -118.5369, 'sw_lat': 33.3353, 'sw_lng': -118.6682, 'lang': 'en', 'show': 'webcams'}": {
        "error": "",
        "response": {
            "status": "OK",
            "result": {
                "offset": 0,
                "limit": 10,
                "total": 3,
                "webcams": [
                    {
                        "id": "1688753242",
                        "status": "active",
                        "title": "Tarzana › North: US-101 : (634) Tampa Ave"
                    },
                    {
                        "id": "1536883539",
                        "status": "active",
                        "title": "Malibu: U.S. 101"
                    },
                    {
                        "id": "1688753371",
                        "status": "active",
                        "title": "Woodland Hills › South: US-101 : (701) Shoup Ave"
                    }
                ]
            }
        }
    },
    "{'ne_lat': 41.935, 'ne_lng': 12.515, 'sw_lat': 41.885, 'sw_lng': 12.455, 'show': 'webcams'}": {
        "error": "",
        "response": {
            "status": "OK",
            "result": {
                "offset": 0,
                "limit": 10,
                "total": 9,
                "webcams": [
                    {
                        "id": "1662586313",
                        "status": "active",
                        "title": "Rome"
                    },
                    {
                        "id": "1240264772",
                        "status": "active",
                        "title": "Sant'Eustachio: roma largo argentina"
                    },
                    {
                        "id": "1681822631",
                        "status": "active",
                        "title": "Municipio Roma I: Rom"
                    },
                    {
                        "id": "1662586067",
                        "status": "active",
                        "title": "Rome"
                    },
                    {
                        "id": "1673269970",
                        "status": "active",
                        "title": "Rome"
                    },
                    {
                        "id": "1662586526",
                        "status": "active",
                        "title": "Rome"
                    },
                    {
                        "id": "1230041254",
                        "status": "active",
                        "title": "Rome: Vatican City State, Saint Peter's Square"
                    },
                    {
                        "id": "1345830065",
                        "status": "active",
                        "title": "Rome: Largo di Torre Argentina 2"
                    },
                    {
                        "id": "1229966886",
                        "status": "active",
                        "title": "Rome › West: Tetti di roma"
                    }
                ]
            }
        }
    },
    "{'ne_lat': 45, 'ne_lng': 180, 'sw_lat': -45, 'sw_lng': -180, 'show': 'webcams', 'lang': 'en'}": {
        "error": "",
        "response": {
            "status": "OK",
            "result": {
                "offset": 0,
                "limit": 10,
                "total": 36407,
                "webcams": [
                    {
                        "id": "1580892907",
                        "status": "active",
                        "title": "Shabla"
                    },
                    {
                        "id": "1525252613",
                        "status": "active",
                        "title": "Dalnegorsk: Дальнегорск"
                    },
                    {
                        "id": "1659377718",
                        "status": "active",
                        "title": "Nakagawa"
                    },
                    {
                        "id": "1333977448",
                        "status": "active",
                        "title": "Tokoro-cho-Higashihama: Tokoro RyuHyo(Drift Ice) Camera"
                    },
                    {
                        "id": "1349865610",
                        "status": "active",
                        "title": "Utoro: Shiretoko - Sea View"
                    },
                    {
                        "id": "1349982637",
                        "status": "active",
                        "title": "Tokoro-cho-Tokoro: Tokoro - School"
                    },
                    {
                        "id": "1333977330",
                        "status": "active",
                        "title": "Tokoro-cho-Gifu: Tokoro Gifu camera2"
                    },
                    {
                        "id": "1525348674",
                        "status": "active",
                        "title": "Dalnegorsk: Дальнегорск - Приморский край, Россия"
                    },
                    {
                        "id": "1519111381",
                        "status": "active",
                        "title": "Dalnegorsk: Дальнегорск"
                    },
                    {
                        "id": "1525348545",
                        "status": "active",
                        "title": "Dalnegorsk: Дальнегорск - Приморский край, Россия"
                    }
                ]
            }
        }
    },
    "{'ne_lat': 60, 'ne_lng': 180, 'sw_lat': -60, 'sw_lng': -180, 'show': 'webcams'}": {
        "error": "",
        "response": {
            "status": "OK",
            "result": {
                "offset": 0,
                "limit": 10,
                "total": 59193,
                "webcams": [
                    {
                        "id": "1672846187",
                        "status": "active",
                        "title": "Aluksne › North-East"
                    },
                    {
                        "id": "1632475015",
                        "status": "active",
                        "title": "Rybinsk"
                    },
                    {
                        "id": "1388898412",
                        "status": "active",
                        "title": "Krasnoturinsk: Улица Ленина в Краснотурьинске"
                    },
                    {
                        "id": "1622614150",
                        "status": "active",
                        "title": "Magadan Urban District › East"
                    },
                    {
                        "id": "1581179786",
                        "status": "active",
                        "title": "Magadan › South-East"
                    },
                    {
                        "id": "1608964758",
                        "status": "active",
                        "title": "Krasnoturinsk: Gradar, Arkhitekturno-Proyektnaya Masterskaya"
                    },
                    {
                        "id": "1681190469",
                        "status": "active",
                        "title": "Dobryansky District › West"
                    },
                    {
                        "id": "1654778199",
                        "status": "active",
                        "title": "Kirov"
                    },
                    {
                        "id": "1634655213",
                        "status": "active",
                        "title": "Kirov"
                    },
                    {
                        "id": "1653646805",
                        "status": "active",
                        "title": "Perm"
                    }
                ]
            }
        }
    },
    "{'ne_lat': 60, 'ne_lng': 10, 'sw_lat': 30, 'sw_lng': -20, 'show': 'webcams'}": {
        "error": "",
        "response": {
            "status": "OK",
            "result": {
                "offset": 0,
                "limit": 10,
                "total": 9975,
                "webcams": [
                    {
                        "id": "1547119085",
                        "status": "active",
                        "title": "Kyrkjebygda › South-West: Kyrkjebygdheia: Kyrkjebygdheia"
                    },
                    {
                        "id": "1675209292",
                        "status": "active",
                        "title": "Hvittingfoss: F40"
                    },
                    {
                        "id": "1405782420",
                        "status": "active",
                        "title": "Hvittingfoss › North: Kongsberg"
                    },
                    {
                        "id": "1675207422",
                        "status": "active",
                        "title": "Darbu: E134 - Hokksund"
                    },
                    {
                        "id": "1364234435",
                        "status": "active",
                        "title": "Sundvollen: Langangen"
                    },
                    {
                        "id": "1675210892",
                        "status": "active",
                        "title": "Pauler: F2962 - Larvik"
                    },
                    {
                        "id": "1675214743",
                        "status": "active",
                        "title": "Vassbotn: E18 - Larvik"
                    },
                    {
                        "id": "1439811951",
                        "status": "active",
                        "title": "Brevik: Skien - Telemark fylke - Skien sentrum, Handelstorvet"
                    },
                    {
                        "id": "1607072666",
                        "status": "active",
                        "title": "Nakkerud"
                    },
                    {
                        "id": "1675212546",
                        "status": "active",
                        "title": "Gamlegrendasen: E134 Damåsen (Hokksund)"
                    }
                ]
            }
        }
    },
    "{'ne_lat': 45, 'ne_lng': 100, 'sw_lat': -45, 'sw_lng': -100, 'show': 'webcams'}": {
        "error": "",
        "response": {
            "status": "OK",
            "result": {
                "offset": 0,
                "limit": 10,
                "total": 26979,
                "webcams": [
                    {
                        "id": "1580892907",
                        "status": "active",
                        "title": "Shabla"
                    },
                    {
                        "id": "1453246988",
                        "status": "active",
                        "title": "Zheleznovodsk › North: вид на гору Бештау"
                    },
                    {
                        "id": "1606769788",
                        "status": "active",
                        "title": "Nevinnomyssk › North"
                    },
                    {
                        "id": "1629362995",
                        "status": "active",
                        "title": "Gelendzhik › North-East"
                    },
                    {
                        "id": "1510493000",
                        "status": "active",
                        "title": "Gelendzhik: The restaurant \"Horizont\" - Gelendzhikskaya Bukhta"
                    },
                    {
                        "id": "1624337036",
                        "status": "active",
                        "title": "Каменномостское сельское поселение › West"
                    },
                    {
                        "id": "1579012027",
                        "status": "active",
                        "title": "Даховское сельское поселение › North: Даховское сельское поселение › North"
                    },
                    {
                        "id": "1457258031",
                        "status": "active",
                        "title": "Proletarskiy Gorodok: Туапсе - Краснодарский край, Россия: Дикий пляж город Туапсе"
                    },
                    {
                        "id": "1604060415",
                        "status": "active",
                        "title": "Novorossiysk › South"
                    },
                    {
                        "id": "1613524587",
                        "status": "active",
                        "title": "Novorossiysk"
                    }
                ]
            }
        }
    },
    "{'ne_lat': 21.2856, 'ne_lng': -157.8354, 'sw_lat': 21.2555, 'sw_lng': -157.8436}": {
        "error": "",
        "response": {
            "status": "OK",
            "result": {
                "offset": 0,
                "limit": 10,
                "total": 0,
                "webcams": []
            }
        }
    },
    "{'ne_lat': 21.2841, 'ne_lng': -157.8374, 'sw_lat': 21.2596, 'sw_lng': -157.825}": {
        "error": "",
        "response": {
            "status": "OK",
            "result": {
                "offset": 0,
                "limit": 10,
                "total": 0,
                "webcams": []
            }
        }
    },
    "{'ne_lat': 34.0866, 'ne_lng': -118.1652, 'sw_lat': 33.7045, 'sw_lng': -118.6682, 'lang': 'en', 'show': 'webcams'}": {
        "error": "",
        "response": {
            "status": "OK",
            "result": {
                "offset": 0,
                "limit": 10,
                "total": 36,
                "webcams": [
                    {
                        "id": "1686160447",
                        "status": "active",
                        "title": "Monterey Park › South: I-710 : (135) South of I-10"
                    },
                    {
                        "id": "1686160399",
                        "status": "active",
                        "title": "Boyle Heights › West: I-10 : (130) West of I-5"
                    },
                    {
                        "id": "1688752971",
                        "status": "active",
                        "title": "Los Angeles › South: I-405 : (369) North of Sunset Blvd"
                    },
                    {
                        "id": "1686160611",
                        "status": "active",
                        "title": "Lynwood › South: I-710 : (276) Southbound I-710 Imperial Hwy"
                    },
                    {
                        "id": "1686160666",
                        "status": "active",
                        "title": "East Los Angeles › North: I-710 : (285) 3rd St"
                    },
                    {
                        "id": "1686160688",
                        "status": "active",
                        "title": "Monterey Park › North: I-710 : (286) North of Cesar Chavez Ave"
                    },
                    {
                        "id": "1686160650",
                        "status": "active",
                        "title": "East Los Angeles › North: I-710 : (284) North of I-5"
                    },
                    {
                        "id": "1686160640",
                        "status": "active",
                        "title": "Commerce › South: I-710 : (283) South of I-5"
                    },
                    {
                        "id": "1686160634",
                        "status": "active",
                        "title": "Bandini › North: I-710 : (282) Washington Blvd"
                    },
                    {
                        "id": "1686160622",
                        "status": "active",
                        "title": "South Gate › North: I-710 : (277) Firestone Blvd"
                    }
                ]
            }
        }
    },
    "{'ne_lat': 34.2, 'ne_lng': -118.4, 'sw_lat': 33.7, 'sw_lng': -118.8, 'show': 'webcams'}": {
        "error": "",
        "response": {
            "status": "OK",
            "result": {
                "offset": 0,
                "limit": 10,
                "total": 14,
                "webcams": [
                    {
                        "id": "1688752971",
                        "status": "active",
                        "title": "Los Angeles › South: I-405 : (369) North of Sunset Blvd"
                    },
                    {
                        "id": "1666215763",
                        "status": "active",
                        "title": "Los Angeles › South-West"
                    },
                    {
                        "id": "1230041522",
                        "status": "active",
                        "title": "Los Angeles: Venice Beach Skatepark"
                    },
                    {
                        "id": "1512339061",
                        "status": "active",
                        "title": "Los Angeles: Venice Beach - USA"
                    },
                    {
                        "id": "1349917207",
                        "status": "active",
                        "title": "Inglewood: Fiji Way - Marina"
                    },
                    {
                        "id": "1688753217",
                        "status": "active",
                        "title": "Tarzana Safari Walk › North: US-101 : (633) Reseda Blvd"
                    },
                    {
                        "id": "1688753242",
                        "status": "active",
                        "title": "Tarzana › North: US-101 : (634) Tampa Ave"
                    },
                    {
                        "id": "1536883539",
                        "status": "active",
                        "title": "Malibu: U.S. 101"
                    },